[{
    "name": "行政院國軍退除役官兵輔導委員會臺北榮民總醫院",
    "address_for_display": "臺北市北投區石牌路2段201號",
    "address_for_system": "台北市石牌路二段201號",
    "telephone": "02-2875-7460",
    "latitude": 25.1201836,
    "longitude": 121.5201598
}, {
    "name": "三軍總醫院附設民眾診療服務處",
    "address_for_display": "臺北市內湖區成功路2段325號",
    "address_for_system": "台北市成功路二段325號",
    "telephone": "02-8792-3311#16555、88195",
    "latitude": 25.0704411,
    "longitude": 121.5903154
}, {
    "name": "新光醫療財團法人新光吳火獅紀念醫院",
    "address_for_display": "臺北市士林區文昌路95號",
    "address_for_system": "台北市文昌路95號",
    "telephone": "02-2833-2211#2620、2999",
    "latitude": 25.0962451,
    "longitude": 121.5203957
}, {
    "name": "國立臺灣大學醫學院附設醫院北護分院",
    "address_for_display": "臺北市萬華區內江街87號",
    "address_for_system": "台北市內江街87號",
    "telephone": "02-2371-7101#8105",
    "latitude": 25.0417643,
    "longitude": 121.5015896
}, {
    "name": "臺北市立關渡醫院",
    "address_for_display": "臺北市北投區知行路225巷12號",
    "address_for_system": "台北市知行路225巷12號",
    "telephone": "02-2858-7107",
    "latitude": 25.1203222,
    "longitude": 121.4661662
}, {
    "name": "臺北醫學大學附設醫院",
    "address_for_display": "臺北市信義區吳興街252號",
    "address_for_system": "台北市吳興街252號",
    "telephone": "02-2737-2181#1105",
    "latitude": 25.0267606,
    "longitude": 121.5634277
}, {
    "name": "臺北市立聯合醫院－和平婦幼院區（和平）",
    "address_for_display": "臺北市中正區中華路2段33號",
    "address_for_system": "台北市中華路二段33號",
    "telephone": "02-2388-9595#8051、2732",
    "latitude": 25.0355619,
    "longitude": 121.506575
}, {
    "name": "博仁綜合醫院",
    "address_for_display": "臺北市松山區光復北路66號",
    "address_for_system": "台北市光復北路66號",
    "telephone": "02-2578-6677#2258、2210",
    "latitude": 25.0498882,
    "longitude": 121.5578126
}, {
    "name": "三軍總醫院松山分院",
    "address_for_display": "臺北市松山區健康路131號",
    "address_for_system": "台北市健康路131號",
    "telephone": "02-2763-3425",
    "latitude": 25.054373,
    "longitude": 121.557672
}, {
    "name": "財團法人臺灣省私立台北仁濟院附設仁濟醫院",
    "address_for_display": "臺北市萬華區廣州街243號",
    "address_for_system": "台北市廣州街243號",
    "telephone": "02-2302-1133#2721",
    "latitude": 25.036887,
    "longitude": 121.498028
}, {
    "name": "長庚醫療財團法人台北長庚紀念醫院",
    "address_for_display": "臺北市松山區敦化北路199號",
    "address_for_system": "台北市敦化北路199號",
    "telephone": "02-2713-5211#3750",
    "latitude": 25.0556065,
    "longitude": 121.5496167
}, {
    "name": "臺北市立聯合醫院－林森院區",
    "address_for_display": "臺北市中山區林森北路530號",
    "address_for_system": "台北市林森北路530號",
    "telephone": "02-2591-6681#1290",
    "latitude": 25.0632872,
    "longitude": 121.525662
}, {
    "name": "宏恩醫療財團法人宏恩綜合醫院",
    "address_for_display": "臺北市大安區仁愛路4段61號",
    "address_for_system": "台北市仁愛路四段61號",
    "telephone": "02-2771-3161#831",
    "latitude": 25.0382354,
    "longitude": 121.5467597
}, {
    "name": "臺北市立聯合醫院－中興院區",
    "address_for_display": "臺北市大同區鄭州路145號",
    "address_for_system": "台北市鄭州路145號",
    "telephone": "02-2552-3234#6246",
    "latitude": 25.0509696,
    "longitude": 121.5093209
}, {
    "name": "行政院衛生署台北醫院城區分院",
    "address_for_display": "臺北市大同區鄭州路40號",
    "address_for_system": "台北市鄭州路40號",
    "telephone": "02-2552-1429#102",
    "latitude": 25.0501995,
    "longitude": 121.5085064
}, {
    "name": "中山醫療社團法人中山醫院",
    "address_for_display": "臺北市大安區仁愛路4段112巷11號",
    "address_for_system": "台北市仁愛路四段112巷11號",
    "telephone": "02-2708-1166#7377、7378",
    "latitude": 25.0366641,
    "longitude": 121.5499766
}, {
    "name": "中國醫藥大學附設醫院臺北分院",
    "address_for_display": "臺北市內湖區內湖路2段360號8樓",
    "address_for_system": "台北市內湖路二段360號",
    "telephone": "02-2791-9696#1890",
    "latitude": 25.0821548,
    "longitude": 121.5906407
}, {
    "name": "國泰醫療財團法人國泰綜合醫院",
    "address_for_display": "臺北市大安區仁愛路4段280號",
    "address_for_system": "台北市仁愛路四段280號",
    "telephone": "02-2708-2121#8725",
    "latitude": 25.0369044,
    "longitude": 121.5535646
}, {
    "name": "基督復臨安息日會醫療財團法人臺安醫院",
    "address_for_display": "臺北市松山區八德路2段424號",
    "address_for_system": "台北市八德路二段424號",
    "telephone": "02-2771-3394",
    "latitude": 25.048012,
    "longitude": 121.5475368
}, {
    "name": "臺北市立聯合醫院－和平婦幼院區（婦幼）",
    "address_for_display": "臺北市中正區福州街12號",
    "address_for_system": "台北市福州街12號",
    "telephone": "02-2391-6471#1135",
    "latitude": 25.029086,
    "longitude": 121.519277
}, {
    "name": "康寧醫療財團法人康寧醫院",
    "address_for_display": "臺北市內湖區成功路5段420巷26號",
    "address_for_system": "台北市成功路五段420巷26號",
    "telephone": "02-2634-5500#16000、16001",
    "latitude": 25.0758921,
    "longitude": 121.6087332
}, {
    "name": "臺北市立聯合醫院－陽明院區",
    "address_for_display": "臺北市士林區雨聲街105號",
    "address_for_system": "台北市雨聲街105號",
    "telephone": "02-2838-9198",
    "latitude": 25.1053417,
    "longitude": 121.5317359
}, {
    "name": "中心診所醫療財團法人中心綜合醫院",
    "address_for_display": "臺北市大安區忠孝東路4段77號",
    "address_for_system": "台北市忠孝東路四段77號",
    "telephone": "02-2781-0190",
    "latitude": 25.0418484,
    "longitude": 121.547396
}, {
    "name": "臺北市立萬芳醫院",
    "address_for_display": "臺北市文山區興隆路3段111號",
    "address_for_system": "台北市興隆路三段111號",
    "telephone": "02-2930-7930#2877、2878",
    "latitude": 24.9996897,
    "longitude": 121.5575845
}, {
    "name": "國立臺灣大學醫學院附設醫院",
    "address_for_display": "臺北市中正區常德街1號",
    "address_for_system": "台北市常德街1號",
    "telephone": "02-2356-2681",
    "latitude": 25.041417,
    "longitude": 121.517181
}, {
    "name": "西園醫院",
    "address_for_display": "臺北市萬華區西園路2段270號",
    "address_for_system": "台北市西園路二段270號",
    "telephone": "02-2307-6925",
    "latitude": 25.0276157,
    "longitude": 121.4943232
}, {
    "name": "臺北市立聯合醫院－仁愛院區",
    "address_for_display": "臺北市大安區仁愛路4段10號",
    "address_for_system": "台北市仁愛路四段10號",
    "telephone": "02-2709-3600#5206、5209",
    "latitude": 25.037512,
    "longitude": 121.545224
}, {
    "name": "振興醫療財團法人振興醫院",
    "address_for_display": "臺北市北投區振興街45號",
    "address_for_system": "台北市振興街45號",
    "telephone": "02-2826-7452; 02-2826-4400#2486",
    "latitude": 25.1175257,
    "longitude": 121.5224662
}, {
    "name": "財團法人臺灣基督長老教會\n馬偕紀念社會事業基金會馬偕紀念醫院",
    "address_for_display": "臺北市中山區中山北路2段92號16樓",
    "address_for_system": "台北市中山北路二段92號",
    "telephone": "02-2543-3535#2860",
    "latitude": 25.0588655,
    "longitude": 121.5226251
}, {
    "name": "臺北市立聯合醫院－忠孝院區",
    "address_for_display": "臺北市南港區同德路87號",
    "address_for_system": "台北市同德路87號",
    "telephone": "02-2786-1288#1656",
    "latitude": 25.0465327,
    "longitude": 121.5860755
}, {
    "name": "同仁院醫療財團法人萬華醫院",
    "address_for_display": "臺北市萬華區中華路2段606巷6號",
    "address_for_system": "台北市中華路二段606巷6號",
    "telephone": "02-2305-9292#999",
    "latitude": 25.0240204,
    "longitude": 121.5098076
}]