[{"unit":"台北市政府環境保護局","title":"公廁坐落：士林官邸","dep_content":"座數：8，特優級：8，優等級：0，普通級：0，加強級：0，無障礙設施","address":"臺北市士林區福林路60號","lng":"121.530152","lat":"25.094898","modifydate":"2013-03-25T17:58:20+08:00"},{"unit":"台北市政府環境保護局","title":"公廁坐落：天母公園","dep_content":"座數：1，特優級：0，優等級：1，普通級：0，加強級：0","address":"臺北市士林區中山北路七段219號邊","lng":"121.530071","lat":"25.125855","modifydate":"2014-05-02T00:00:00+08:00"},{"unit":"台北市政府環境保護局","title":"公廁坐落：至善公園","dep_content":"座數：1，特優級：0，優等級：1，普通級：0，加強級：0，無障礙設施","address":"臺北市士林區至善路與福林路會口處公園廣場東北側","lng":"121.538224","lat":"25.098326","modifydate":"2013-03-25T17:56:07+08:00"},{"unit":"台北市政府環境保護局","title":"公廁坐落：忠誠公園","dep_content":"座數：1，特優級：1，優等級：0，普通級：0，加強級：0，無障礙設施","address":"臺北市士林區中山北路六段與忠誠路會口公園水池後方","lng":"121.525878","lat":"25.103148","modifydate":"2013-03-25T17:56:20+08:00"},{"unit":"台北市政府環境保護局","title":"公廁坐落：社子公園","dep_content":"座數：1，特優級：0，優等級：1，普通級：0，加強級：0，無障礙設施","address":"臺北市士林區永平街20巷11弄3號對面","lng":"121.506159","lat":"25.090457","modifydate":"2013-03-25T17:51:19+08:00"},{"unit":"台北市政府環境保護局","title":"公廁坐落：芝山公園1號","dep_content":"座數：2，特優級：0，優等級：2，普通級：0，加強級：0，無障礙設施","address":"臺北市士林區雨農路、至誠路一段交叉口處閱覽室旁","lng":"121.532836","lat":"25.101148","modifydate":"2013-03-25T17:55:38+08:00"},{"unit":"台北市政府環境保護局","title":"公廁坐落：芝山公園2號","dep_content":"座數：1，特優級：0，優等級：1，普通級：0，加強級：0，無障礙設施","address":"臺北市士林區士林至誠路一段182號與雨農路交叉口","lng":"121.532837","lat":"25.101671","modifydate":"2013-03-25T17:37:54+08:00"},{"unit":"台北市政府環境保護局","title":"公廁坐落：花卉試驗中心","dep_content":"座數：2，特優級：1，優等級：1，普通級：0，加強級：0，無障礙設施","address":"臺北市士林區仰德大道四段175巷32號","lng":"121.544438","lat":"25.134945","modifydate":"2013-03-25T18:00:17+08:00"},{"unit":"台北市政府環境保護局","title":"公廁坐落：美崙公園","dep_content":"座數：2，特優級：0，優等級：2，普通級：0，加強級：0，無障礙設施","address":"臺北市士林區美崙街152巷","lng":"121.519656","lat":"25.096979","modifydate":"2014-03-20T13:59:42+08:00"},{"unit":"台北市政府環境保護局","title":"公廁坐落：海光公園","dep_content":"座數：1，特優級：0，優等級：1，普通級：0，加強級：0，無障礙設施","address":"臺北市士林區葫蘆街83號","lng":"121.508381","lat":"25.082198","modifydate":"2013-03-05T17:29:34+08:00"},{"unit":"台北市政府環境保護局","title":"公廁坐落：雙溪公園","dep_content":"座數：3，特優級：3，優等級：0，普通級：0，加強級：0，無障礙設施","address":"臺北市士林區福林路、至善路口東南側","lng":"121.53547","lat":"25.098298","modifydate":"2013-03-25T17:35:20+08:00"},{"unit":"台北市政府環境保護局","title":"公廁坐落：中油文林路站","dep_content":"座數：1，特優級：0，優等級：1，普通級：0，加強級：0，無障礙設施","address":"臺北市士林區文林路100號","lng":"121.526258","lat":"25.087477","modifydate":"2013-03-25T16:14:58+08:00"},{"unit":"台北市政府環境保護局","title":"公廁坐落：中油社子站","dep_content":"座數：1，特優級：0，優等級：1，普通級：0，加強級：0，無障礙設施","address":"臺北市士林區重慶北路四段198號","lng":"121.51182","lat":"25.084886","modifydate":"2013-06-06T10:27:07+08:00"},{"unit":"台北市政府環境保護局","title":"公廁坐落：中油陽明山站","dep_content":"座數：1，特優級：0，優等級：1，普通級：0，加強級：0","address":"臺北市士林區格致路3號","lng":"121.545953","lat":"25.135452","modifydate":"2013-03-25T16:18:30+08:00"},{"unit":"台北市政府環境保護局","title":"公廁坐落：中油福林站","dep_content":"座數：1，特優級：1，優等級：0，普通級：0，加強級：0，無障礙設施","address":"臺北市士林區中山北路五段465號","lng":"121.52766","lat":"25.092397","modifydate":"2013-03-25T16:16:09+08:00"},{"unit":"台北市政府環境保護局","title":"公廁坐落：全國台北交流道站","dep_content":"座數：1，特優級：0，優等級：0，普通級：1，加強級：0","address":"臺北市士林區重慶北路四段141號","lng":"121.511879","lat":"25.086065","modifydate":"2013-04-26T15:55:49+08:00"},{"unit":"台北市政府環境保護局","title":"公廁坐落：全國洲美加油站","dep_content":"座數：2，特優級：0，優等級：2，普通級：0，加強級：0","address":"臺北市士林區延平北路六段505號","lng":"121.509647","lat":"25.085181","modifydate":"2013-04-26T15:41:22+08:00"},{"unit":"台北市政府環境保護局","title":"公廁坐落：西歐加油站士林站","dep_content":"座數：2，特優級：0，優等級：1，普通級：1，加強級：0，無障礙設施","address":"臺北市士林區中山北路五段570號","lng":"121.528164","lat":"25.095663","modifydate":"2013-04-26T16:11:52+08:00"},{"unit":"台北市政府環境保護局","title":"公廁坐落：西歐加油站基河站","dep_content":"座數：2，特優級：0，優等級：2，普通級：0，加強級：0","address":"臺北市士林區承德路四段200號","lng":"121.52201","lat":"25.087651","modifydate":"2013-04-26T16:11:25+08:00"},{"unit":"台北市政府環境保護局","title":"公廁坐落：芝山加油站","dep_content":"座數：1，特優級：0，優等級：1，普通級：0，加強級：0，無障礙設施","address":"臺北市士林區至誠路二段40號1樓","lng":"121.528939","lat":"25.101948","modifydate":"2013-04-26T15:58:03+08:00"},{"unit":"台北市政府環境保護局","title":"公廁坐落：公有士東市場","dep_content":"座數：4，特優級：4，優等級：0，普通級：0，加強級：0，無障礙設施","address":"臺北市士林區士東路一段100號","lng":"121.529163","lat":"25.111997","modifydate":"2014-01-15T17:45:22+08:00"},{"unit":"台北市政府環境保護局","title":"公廁坐落：頂好超市天母北分公司","dep_content":"座數：0，特優級：0，優等級：0，普通級：0，加強級：0","address":"臺北市士林區中山北路七段154巷6號","lng":"121.5329","lat":"25.1234","modifydate":"2013-11-28T10:26:43+08:00"},{"unit":"台北市政府環境保護局","title":"公廁坐落：頂好超級市場後港分公司","dep_content":"座數：1，特優級：0，優等級：1，普通級：0，加強級：0","address":"臺北市士林區華齡街175號 ","lng":"121.5194","lat":"25.087","modifydate":"2013-06-24T11:11:53+08:00"},{"unit":"台北市政府環境保護局","title":"公廁坐落：華榮超級市場","dep_content":"座數：1，特優級：0，優等級：1，普通級：0，加強級：0，無障礙設施","address":"臺北市士林區華聲街17號","lng":"121.5222","lat":"25.0962","modifydate":"2013-07-19T11:53:06+08:00"},{"unit":"台北市政府環境保護局","title":"公廁坐落：福華市場","dep_content":"座數：2，特優級：0，優等級：2，普通級：0，加強級：0，無障礙設施","address":"臺北市士林區通河街323之1號","lng":"121.516477","lat":"25.082523","modifydate":"2013-02-06T15:30:16+08:00"},{"unit":"台北市政府環境保護局","title":"公廁坐落：臺北市公有士林市場","dep_content":"座數：12，特優級：0，優等級：12，普通級：0，加強級：0，無障礙設施","address":"臺北市士林區基河路101號","lng":"121.524366","lat":"25.087416","modifydate":"2014-01-15T17:56:34+08:00"},{"unit":"台北市政府環境保護局","title":"公廁坐落：天母停車場","dep_content":"座數：2，特優級：0，優等級：2，普通級：0，加強級：0","address":"臺北市士林區天母西路1號地下1樓","lng":"121.529646","lat":"25.119953","modifydate":"2013-03-04T17:31:25+08:00"},{"unit":"台北市政府環境保護局","title":"公廁坐落：文昌國小地下停車場","dep_content":"座數：2，特優級：2，優等級：0，普通級：0，加強級：0，無障礙設施","address":"臺北市士林區文林路615巷20號","lng":"121.521336","lat":"25.099402","modifydate":"2013-03-21T16:19:33+08:00"},{"unit":"台北市政府環境保護局","title":"公廁坐落：百齡高中地下停車場","dep_content":"座數：2，特優級：0，優等級：2，普通級：0，加強級：0，無障礙設施","address":"臺北市士林區承德路四段175號地下一、二樓","lng":"121.523996","lat":"25.086151","modifydate":"2013-03-04T16:57:33+08:00"},{"unit":"台北市政府環境保護局","title":"公廁坐落：承德公園地下停車場","dep_content":"座數：2，特優級：0，優等級：2，普通級：0，加強級：0，無障礙設施","address":"臺北市士林區基河路150號","lng":"121.522448","lat":"25.089893","modifydate":"2013-03-21T16:19:08+08:00"},{"unit":"台北市政府環境保護局","title":"公廁坐落：社子國小地下停車場","dep_content":"座數：2，特優級：2，優等級：0，普通級：0，加強級：0，無障礙設施","address":"臺北市士林區延平北路六段308號B1","lng":"121.502685","lat":"25.09","modifydate":"2013-03-05T17:04:31+08:00"},{"unit":"台北市政府環境保護局","title":"公廁坐落：社園立體停車場","dep_content":"座數：1，特優級：1，優等級：0，普通級：0，加強級：0，無障礙設施","address":"臺北市士林區延平北路六段180號","lng":"121.505951","lat":"25.089582","modifydate":"2013-03-04T16:59:30+08:00"},{"unit":"台北市政府環境保護局","title":"公廁坐落：前港公園地下停車場","dep_content":"座數：2，特優級：0，優等級：2，普通級：0，加強級：0，無障礙設施","address":"臺北市士林區前港街45號地下","lng":"121.520326","lat":"25.084906","modifydate":"2013-03-04T16:58:53+08:00"},{"unit":"台北市政府環境保護局","title":"公廁坐落：海光公園地下停車場","dep_content":"座數：2，特優級：2，優等級：0，普通級：0，加強級：0，無障礙設施","address":"臺北市士林區葫蘆街83號","lng":"121.508328","lat":"25.081436","modifydate":"2013-03-21T16:18:29+08:00"},{"unit":"台北市政府環境保護局","title":"公廁坐落：捷運士林站","dep_content":"座數：5，特優級：5，優等級：0，普通級：0，加強級：0","address":"臺北市士林區福德路1號","lng":"121.52623","lat":"25.093535","modifydate":"2014-03-13T15:00:13+08:00"},{"unit":"台北市政府環境保護局","title":"公廁坐落：捷運芝山站","dep_content":"座數：5，特優級：5，優等級：0，普通級：0，加強級：0，無障礙設施","address":"臺北市士林區福國路70號","lng":"121.522514","lat":"25.10306","modifydate":"2013-03-04T10:38:21+08:00"},{"unit":"台北市政府環境保護局","title":"公廁坐落：捷運劍潭站","dep_content":"座數：5，特優級：5，優等級：0，普通級：0，加強級：0","address":"臺北市士林區中山北路五段65號","lng":"121.525078","lat":"25.084873","modifydate":"2013-03-04T10:38:58+08:00"},{"unit":"台北市政府環境保護局","title":"公廁坐落：嘟嘟房停車場(故宮站)","dep_content":"座數：2，特優級：0，優等級：2，普通級：0，加強級：0，無障礙設施","address":"臺北市士林區至善路二段221號對面","lng":"121.549242","lat":"25.099239","modifydate":"2013-03-04T17:24:02+08:00"},{"unit":"台北市政府環境保護局","title":"公廁坐落：福林公園地下停車場","dep_content":"座數：2，特優級：2，優等級：0，普通級：0，加強級：0，無障礙設施","address":"臺北市士林區中正路17號地下","lng":"121.53","lat":"25.0958","modifydate":"2013-07-25T09:06:55+08:00"},{"unit":"台北市政府環境保護局","title":"公廁坐落：大葉高島屋百貨","dep_content":"座數：23，特優級：23，優等級：0，普通級：0，加強級：0，無障礙設施","address":"臺北市士林區忠誠路二段55號","lng":"121.531342","lat":"25.111735","modifydate":"2013-03-26T15:16:52+08:00"},{"unit":"台北市政府環境保護局","title":"公廁坐落：太平洋崇光百貨SOGO天母店","dep_content":"座數：19，特優級：19，優等級：0，普通級：0，加強級：0，無障礙設施","address":"臺北市士林區中山北路六段77號","lng":"121.524523","lat":"25.104687","modifydate":"2012-09-14T15:14:25+08:00"},{"unit":"台北市政府環境保護局","title":"公廁坐落：家樂福天母店","dep_content":"座數：7，特優級：0，優等級：7，普通級：0，加強級：0，無障礙設施","address":"臺北市士林區德行西路47號","lng":"121.522509","lat":"25.105293","modifydate":"2013-12-02T18:54:53+08:00"},{"unit":"台北市政府環境保護局","title":"公廁坐落：特力和樂","dep_content":"座數：3，特優級：2，優等級：1，普通級：0，加強級：0，無障礙設施","address":"臺北市士林區基河路258號地下一樓","lng":"121.520569","lat":"25.092177","modifydate":"2013-01-10T14:48:05+08:00"},{"unit":"台北市政府環境保護局","title":"公廁坐落：特力屋士林購物中心","dep_content":"座數：5，特優級：0，優等級：5，普通級：0，加強級：0，無障礙設施","address":"臺北市士林區基河路258號","lng":"121.520569","lat":"25.092177","modifydate":"2013-01-10T14:56:10+08:00"},{"unit":"台北市政府環境保護局","title":"公廁坐落：新光三越百貨臺北天母店","dep_content":"座數：19，特優級：19，優等級：0，普通級：0，加強級：0，無障礙設施","address":"臺北市士林區天母東路68號","lng":"121.533924","lat":"25.11795","modifydate":"2013-03-26T16:11:33+08:00"},{"unit":"台北市政府環境保護局","title":"公廁坐落：誠品商場忠誠店","dep_content":"座數：6，特優級：6，優等級：0，普通級：0，加強級：0，無障礙設施","address":"臺北市士林區忠誠路二段188號地下1樓","lng":"121.532172","lat":"25.114098","modifydate":"2013-03-26T16:31:36+08:00"},{"unit":"台北市政府環境保護局","title":"公廁坐落：天母三玉宮","dep_content":"座數：1，特優級：0，優等級：1，普通級：0，加強級：0","address":"臺北市士林區天母東路6號","lng":"121.53136","lat":"25.118265","modifydate":"2013-04-16T15:09:16+08:00"},{"unit":"台北市政府環境保護局","title":"公廁坐落：神農宮","dep_content":"座數：2，特優級：0，優等級：2，普通級：0，加強級：0","address":"臺北市士林區前街74號","lng":"121.526158","lat":"25.097958","modifydate":"2013-04-16T15:30:45+08:00"},{"unit":"台北市政府環境保護局","title":"公廁坐落：慈諴宮","dep_content":"座數：1，特優級：0，優等級：0，普通級：1，加強級：0","address":"臺北市士林區大南路84號","lng":"121.5245","lat":"25.08954","modifydate":"2013-04-16T14:06:59+08:00"},{"unit":"台北市政府環境保護局","title":"公廁坐落：士林天母棒球場","dep_content":"座數：24，特優級：13，優等級：11，普通級：0，加強級：0，無障礙設施","address":"臺北市士林區忠誠路二段77號","lng":"121.534287","lat":"25.114385","modifydate":"2014-03-14T16:58:42+08:00"},{"unit":"台北市政府環境保護局","title":"公廁坐落：天母運動場","dep_content":"座數：6，特優級：0，優等級：6，普通級：0，加強級：0，無障礙設施","address":"臺北市士林區忠誠路與士東路天母棒球場旁","lng":"121.534287","lat":"25.114385","modifydate":"2013-05-29T10:29:56+08:00"},{"unit":"台北市政府環境保護局","title":"公廁坐落：克強游泳池","dep_content":"座數：1，特優級：0，優等級：1，普通級：0，加強級：0","address":"臺北市士林區磺溪街55巷2號","lng":"121.522836","lat":"25.107477","modifydate":"2013-08-08T08:47:35+08:00"},{"unit":"台北市政府環境保護局","title":"公廁坐落：林語堂故居","dep_content":"座數：1，特優級：0，優等級：1，普通級：0，加強級：0，無障礙設施","address":"臺北市士林區仰德大道二段141號","lng":"121.546978","lat":"25.109577","modifydate":"2013-05-29T10:32:19+08:00"},{"unit":"台北市政府環境保護局","title":"公廁坐落：前港公園游泳池","dep_content":"座數：1，特優級：0，優等級：0，普通級：1，加強級：0，無障礙設施","address":"臺北市士林區士林後港街66號","lng":"121.522222","lat":"25.085479","modifydate":"2013-08-08T08:46:08+08:00"},{"unit":"台北市政府環境保護局","title":"公廁坐落：國立故宮博物院","dep_content":"座數：12，特優級：12，優等級：0，普通級：0，加強級：0，無障礙設施","address":"臺北市士林區至善路二段221號","lng":"121.54936","lat":"25.099688","modifydate":"2014-01-20T16:59:34+08:00"},{"unit":"台北市政府環境保護局","title":"公廁坐落：國立臺灣科學教育館","dep_content":"座數：46，特優級：46，優等級：0，普通級：0，加強級：0，無障礙設施","address":"臺北市士林區士商路189號","lng":"121.51601","lat":"25.095988","modifydate":"2014-01-06T12:37:21+08:00"},{"unit":"台北市政府環境保護局","title":"公廁坐落：順益臺灣原住民博物館","dep_content":"座數：2，特優級：2，優等級：0，普通級：0，加強級：0","address":"臺北市士林區至善路二段282號","lng":"121.552025","lat":"25.100981","modifydate":"2013-02-26T14:44:33+08:00"},{"unit":"台北市政府環境保護局","title":"公廁坐落：圓山保齡球館","dep_content":"座數：4，特優級：0，優等級：2，普通級：2，加強級：0","address":"臺北市士林區中山北路五段6號","lng":"121.525626","lat":"25.082348","modifydate":"2013-03-21T17:16:04+08:00"},{"unit":"台北市政府環境保護局","title":"公廁坐落：臺北市士林運動中心","dep_content":"座數：15，特優級：15，優等級：0，普通級：0，加強級：0，無障礙設施","address":"臺北市士林區士商路1號","lng":"121.52141","lat":"25.089491","modifydate":"2013-07-15T17:43:28+08:00"},{"unit":"台北市政府環境保護局","title":"公廁坐落：臺北市立天文科學教育館","dep_content":"座數：28，特優級：28，優等級：0，普通級：0，加強級：0，無障礙設施","address":"臺北市士林區基河路363號","lng":"121.518965","lat":"25.096063","modifydate":"2013-07-12T21:41:00+08:00"},{"unit":"台北市政府環境保護局","title":"公廁坐落：中國文化大學","dep_content":"座數：147，特優級：118，優等級：29，普通級：0，加強級：0，無障礙設施","address":"臺北市士林區華岡路55號","lng":"121.540962","lat":"25.137688","modifydate":"2014-02-24T18:13:02+08:00"},{"unit":"台北市政府環境保護局","title":"公廁坐落：台北海洋技術學院","dep_content":"座數：19，特優級：0，優等級：18，普通級：1，加強級：0，無障礙設施","address":"臺北市士林區延平北路九段212號","lng":"121.471155","lat":"25.108355","modifydate":"2013-08-20T18:19:37+08:00"},{"unit":"台北市政府環境保護局","title":"公廁坐落：東吳大學","dep_content":"座數：36，特優級：36，優等級：0，普通級：0，加強級：0，無障礙設施","address":"臺北市士林區臨溪路70號","lng":"121.546597","lat":"25.094305","modifydate":"2013-08-07T08:48:01+08:00"},{"unit":"台北市政府環境保護局","title":"公廁坐落：臺北市士林區三玉國民小學","dep_content":"座數：28，特優級：24，優等級：4，普通級：0，加強級：0，無障礙設施","address":"臺北市士林區天母東路116號","lng":"121.53712","lat":"25.117932","modifydate":"2013-04-02T17:04:37+08:00"},{"unit":"台北市政府環境保護局","title":"公廁坐落：臺北市士林區士東國民小學","dep_content":"座數：42，特優級：8，優等級：32，普通級：2，加強級：0，無障礙設施","address":"臺北市士林區中山北路六段392號","lng":"121.526831","lat":"25.112933","modifydate":"2013-05-14T09:04:56+08:00"},{"unit":"台北市政府環境保護局","title":"公廁坐落：臺北市士林區士林國民小學","dep_content":"座數：27，特優級：1，優等級：26，普通級：0，加強級：0，無障礙設施","address":"臺北市士林區大東路165號","lng":"121.525064","lat":"25.09258","modifydate":"2012-12-27T16:24:31+08:00"},{"unit":"台北市政府環境保護局","title":"公廁坐落：臺北市士林區天母國民小學","dep_content":"座數：40，特優級：10，優等級：30，普通級：0，加強級：0，無障礙設施","address":"臺北市士林區天玉街12號","lng":"121.52748","lat":"25.120166","modifydate":"2013-04-02T16:50:13+08:00"},{"unit":"台北市政府環境保護局","title":"公廁坐落：臺北市士林區文昌國民小學","dep_content":"座數：23，特優級：23，優等級：0，普通級：0，加強級：0，無障礙設施","address":"臺北市士林區文林路615巷20號","lng":"121.521336","lat":"25.099402","modifydate":"2013-04-02T16:36:06+08:00"},{"unit":"台北市政府環境保護局","title":"公廁坐落：臺北市士林區平等國民小學","dep_content":"座數：4，特優級：0，優等級：4，普通級：0，加強級：0，無障礙設施","address":"臺北市士林區平菁街101號","lng":"121.576607","lat":"25.129443","modifydate":"2012-11-21T16:27:53+08:00"},{"unit":"台北市政府環境保護局","title":"公廁坐落：臺北市士林區百齡國民小學","dep_content":"座數：25，特優級：4，優等級：21，普通級：0，加強級：0，無障礙設施","address":"臺北市士林區福港街205號","lng":"121.517996","lat":"25.08636","modifydate":"2012-11-26T11:03:14+08:00"},{"unit":"台北市政府環境保護局","title":"公廁坐落：臺北市士林區社子國民小學","dep_content":"座數：43，特優級：0，優等級：42，普通級：1，加強級：0，無障礙設施","address":"臺北市士林區延平北路六段308號","lng":"121.502685","lat":"25.09","modifydate":"2013-11-04T08:35:37+08:00"},{"unit":"台北市政府環境保護局","title":"公廁坐落：臺北市士林區芝山國民小學","dep_content":"座數：32，特優級：27，優等級：5，普通級：0，加強級：0，無障礙設施","address":"臺北市士林區德行東路285號","lng":"121.536413","lat":"25.110298","modifydate":"2012-12-03T18:27:58+08:00"},{"unit":"台北市政府環境保護局","title":"公廁坐落：臺北市士林區雨農國民小學","dep_content":"座數：14，特優級：8，優等級：6，普通級：0，加強級：0，無障礙設施","address":"臺北市士林區忠義街1號","lng":"121.529455","lat":"25.105269","modifydate":"2012-12-18T18:21:44+08:00"},{"unit":"台北市政府環境保護局","title":"公廁坐落：臺北市士林區雨聲國民小學","dep_content":"座數：12，特優級：0，優等級：12，普通級：0，加強級：0，無障礙設施","address":"臺北市士林區至誠路一段62巷70號","lng":"121.534873","lat":"25.10354","modifydate":"2013-03-26T11:08:39+08:00"},{"unit":"台北市政府環境保護局","title":"公廁坐落：臺北市士林區富安國民小學","dep_content":"座數：9，特優級：0，優等級：8，普通級：1，加強級：0","address":"臺北市士林區延平北路八段135號","lng":"121.48239","lat":"25.105932","modifydate":"2013-03-26T11:05:55+08:00"},{"unit":"台北市政府環境保護局","title":"公廁坐落：臺北市士林區陽明山國民小學","dep_content":"座數：19，特優級：16，優等級：3，普通級：0，加強級：0，無障礙設施","address":"臺北市士林區仰德大道三段61號","lng":"121.552844","lat":"25.119869","modifydate":"2013-11-11T11:23:31+08:00"},{"unit":"台北市政府環境保護局","title":"公廁坐落：臺北市士林區溪山國民小學","dep_content":"座數：3，特優級：1，優等級：2，普通級：0，加強級：0，無障礙設施","address":"臺北市士林區至善路三段199號","lng":"121.579593","lat":"25.119671","modifydate":"2012-11-21T09:27:34+08:00"},{"unit":"台北市政府環境保護局","title":"公廁坐落：臺北市士林區葫蘆國民小學","dep_content":"座數：35，特優級：19，優等級：15，普通級：1，加強級：0，無障礙設施","address":"臺北市士林區環河北路三段95號","lng":"121.507802","lat":"25.083645","modifydate":"2014-02-24T18:20:52+08:00"},{"unit":"台北市政府環境保護局","title":"公廁坐落：臺北市士林區福林國民小學","dep_content":"座數：21，特優級：0，優等級：13，普通級：8，加強級：0，無障礙設施","address":"臺北市士林區福志路75號","lng":"121.529656","lat":"25.098594","modifydate":"2013-12-05T09:42:37+08:00"},{"unit":"台北市政府環境保護局","title":"公廁坐落：臺北市士林區劍潭國民小學","dep_content":"座數：19，特優級：7，優等級：12，普通級：0，加強級：0，無障礙設施","address":"臺北市士林區通河街16號","lng":"121.522893","lat":"25.079905","modifydate":"2013-03-04T19:08:29+08:00"},{"unit":"台北市政府環境保護局","title":"公廁坐落：臺北市士林區雙溪國民小學","dep_content":"座數：10，特優級：0，優等級：10，普通級：0，加強級：0，無障礙設施","address":"臺北市士林區中社路二段66號","lng":"121.563932","lat":"25.106057","modifydate":"2012-11-21T09:12:32+08:00"},{"unit":"台北市政府環境保護局","title":"公廁坐落：臺北市士林區蘭雅國民小學","dep_content":"座數：30，特優級：24，優等級：6，普通級：0，加強級：0，無障礙設施","address":"臺北市士林區磺溪街57號","lng":"121.523121","lat":"25.108283","modifydate":"2012-12-10T09:18:27+08:00"},{"unit":"台北市政府環境保護局","title":"公廁坐落：臺北市立士林高級商業職業學校","dep_content":"座數：37，特優級：2，優等級：34，普通級：1，加強級：0，無障礙設施","address":"臺北市士林區士商路150號","lng":"121.516526","lat":"25.094766","modifydate":"2013-06-05T10:11:55+08:00"},{"unit":"台北市政府環境保護局","title":"公廁坐落：臺北市立士林國民中學","dep_content":"座數：35，特優級：0，優等級：35，普通級：0，加強級：0，無障礙設施","address":"臺北市士林區中正路345號","lng":"121.522775","lat":"25.094323","modifydate":"2013-12-26T08:48:06+08:00"},{"unit":"台北市政府環境保護局","title":"公廁坐落：臺北市立大學天母校區","dep_content":"座數：85，特優級：67，優等級：18，普通級：0，加強級：0，無障礙設施","address":"臺北市士林區忠誠路二段207巷6號","lng":"121.536395","lat":"25.1161","modifydate":"2013-10-22T16:06:30+08:00"},{"unit":"台北市政府環境保護局","title":"公廁坐落：臺北市立天母國民中學","dep_content":"座數：42，特優級：6，優等級：36，普通級：0，加強級：0，無障礙設施","address":"臺北市士林區天母東路120號","lng":"121.538362","lat":"25.117906","modifydate":"2014-03-17T11:18:30+08:00"},{"unit":"台北市政府環境保護局","title":"公廁坐落：臺北市立百齡高級中學","dep_content":"座數：42，特優級：5，優等級：37，普通級：0，加強級：0，無障礙設施","address":"臺北市士林區承德路四段177號","lng":"121.522971","lat":"25.086993","modifydate":"2013-10-21T09:30:53+08:00"},{"unit":"台北市政府環境保護局","title":"公廁坐落：臺北市立至善國民中學","dep_content":"座數：9，特優級：3，優等級：6，普通級：0，加強級：0","address":"臺北市士林區至善路二段360號","lng":"121.555481","lat":"25.103488","modifydate":"2014-03-17T13:54:13+08:00"},{"unit":"台北市政府環境保護局","title":"公廁坐落：臺北市立格致國民中學","dep_content":"座數：12，特優級：0，優等級：12，普通級：0，加強級：0","address":"臺北市士林區仰德大道四段75號","lng":"121.546199","lat":"25.131444","modifydate":"2012-12-18T18:07:38+08:00"},{"unit":"台北市政府環境保護局","title":"公廁坐落：臺北市立啟明學校","dep_content":"座數：23，特優級：15，優等級：8，普通級：0，加強級：0，無障礙設施","address":"臺北市士林區忠誠路二段207巷1號","lng":"121.534969","lat":"25.116621","modifydate":"2013-12-09T10:18:47+08:00"},{"unit":"台北市政府環境保護局","title":"公廁坐落：臺北市立啟智學校","dep_content":"座數：24，特優級：9，優等級：15，普通級：0，加強級：0，無障礙設施","address":"臺北市士林區忠誠路二段207巷3號","lng":"121.536225","lat":"25.116617","modifydate":"2013-06-05T10:00:12+08:00"},{"unit":"台北市政府環境保護局","title":"公廁坐落：臺北市立陽明高級中學","dep_content":"座數：36，特優級：0，優等級：36，普通級：0，加強級：0，無障礙設施","address":"臺北市士林區中正路510號","lng":"121.517963","lat":"25.092376","modifydate":"2014-03-03T18:06:23+08:00"},{"unit":"台北市政府環境保護局","title":"公廁坐落：臺北市立福安國民中學","dep_content":"座數：12，特優級：0，優等級：10，普通級：2，加強級：0","address":"臺北市士林區延平北路七段250號","lng":"121.487902","lat":"25.103056","modifydate":"2014-02-25T13:48:16+08:00"},{"unit":"台北市政府環境保護局","title":"公廁坐落：臺北市立蘭雅國民中學","dep_content":"座數：20，特優級：18，優等級：2，普通級：0，加強級：0，無障礙設施","address":"臺北市士林區忠誠路二段51號","lng":"121.530914","lat":"25.110451","modifydate":"2014-03-17T13:46:45+08:00"},{"unit":"台北市政府環境保護局","title":"公廁坐落：臺北市私立泰北高級中學","dep_content":"座數：34，特優級：34，優等級：0，普通級：0，加強級：0","address":"臺北市士林區福林路240號","lng":"121.534168","lat":"25.097424","modifydate":"2013-03-07T17:14:50+08:00"},{"unit":"台北市政府環境保護局","title":"公廁坐落：臺北市私立華岡藝術學校","dep_content":"座數：7，特優級：4，優等級：3，普通級：0，加強級：0","address":"臺北市士林區建業路73巷8號","lng":"121.549865","lat":"25.137359","modifydate":"2012-12-18T18:03:38+08:00"},{"unit":"台北市政府環境保護局","title":"公廁坐落：臺北市私立華興高級中學","dep_content":"座數：8，特優級：0，優等級：8，普通級：0，加強級：0，無障礙設施","address":"臺北市士林區仰德大道一段101號","lng":"121.538354","lat":"25.10478","modifydate":"2012-12-28T13:41:05+08:00"},{"unit":"台北市政府環境保護局","title":"公廁坐落：臺北市私立華興國民小學","dep_content":"座數：12，特優級：0，優等級：12，普通級：0，加強級：0，無障礙設施","address":"臺北市士林區仰德大道一段101號","lng":"121.538354","lat":"25.10478","modifydate":"2012-12-28T13:37:30+08:00"},{"unit":"台北市政府環境保護局","title":"公廁坐落：臺北市私立衛理女子高級中學","dep_content":"座數：28，特優級：28，優等級：0，普通級：0，加強級：0，無障礙設施","address":"臺北市士林區至善路二段321號","lng":"121.556968","lat":"25.10472","modifydate":"2013-06-05T10:04:16+08:00"},{"unit":"台北市政府環境保護局","title":"公廁坐落：臺灣神學院","dep_content":"座數：4，特優級：0，優等級：4，普通級：0，加強級：0","address":"臺北市士林區仰德大道二段2巷20號","lng":"121.541124","lat":"25.101285","modifydate":"2012-11-21T16:26:35+08:00"},{"unit":"台北市政府環境保護局","title":"公廁坐落：銘傳大學","dep_content":"座數：34，特優級：34，優等級：0，普通級：0，加強級：0，無障礙設施","address":"臺北市士林區中山北路五段250號","lng":"121.527633","lat":"25.087388","modifydate":"2013-08-12T18:17:23+08:00"},{"unit":"台北市政府環境保護局","title":"公廁坐落：士林分局","dep_content":"座數：3，特優級：3，優等級：0，普通級：0，加強級：0，無障礙設施","address":"臺北市士林區文林路235號","lng":"121.525818","lat":"25.090867","modifydate":"2013-07-31T11:34:24+08:00"},{"unit":"台北市政府環境保護局","title":"公廁坐落：士林地政事務所","dep_content":"座數：9，特優級：8，優等級：1，普通級：0，加強級：0，無障礙設施","address":"臺北市士林區中正路439號5樓","lng":"121.51967","lat":"25.092808","modifydate":"2014-04-16T08:40:36+08:00"},{"unit":"台北市政府環境保護局","title":"公廁坐落：士林區清潔隊","dep_content":"座數：1，特優級：0，優等級：1，普通級：0，加強級：0","address":"臺北市中正路439號7樓","lng":"121.519572","lat":"25.092759","modifydate":"2013-02-25T13:40:37+08:00"},{"unit":"台北市政府環境保護局","title":"公廁坐落：天母派出所","dep_content":"座數：1，特優級：0，優等級：1，普通級：0，加強級：0","address":"臺北市士林區中山北路七段192號","lng":"121.532891","lat":"25.124972","modifydate":"2013-03-29T10:57:18+08:00"},{"unit":"台北市政府環境保護局","title":"公廁坐落：交通部公路總局臺北市區監理所士林監理站","dep_content":"座數：10，特優級：10，優等級：0，普通級：0，加強級：0，無障礙設施","address":"臺北市士林區承德路五段80號","lng":"121.51433","lat":"25.094158","modifydate":"2013-03-27T15:08:51+08:00"},{"unit":"台北市政府環境保護局","title":"公廁坐落：李科永紀念圖書館","dep_content":"座數：9，特優級：9，優等級：0，普通級：0，加強級：0，無障礙設施","address":"臺北市士林區中正路15號","lng":"121.517365","lat":"25.091507","modifydate":"2014-02-24T08:40:42+08:00"},{"unit":"台北市政府環境保護局","title":"公廁坐落：芝山岩派出所","dep_content":"座數：1，特優級：0，優等級：1，普通級：0，加強級：0，無障礙設施","address":"臺北市士林區仰德大道一段16號","lng":"121.537886","lat":"25.101122","modifydate":"2013-03-29T10:57:32+08:00"},{"unit":"台北市政府環境保護局","title":"公廁坐落：後港派出所","dep_content":"座數：1，特優級：0，優等級：1，普通級：0，加強級：0，無障礙設施","address":"臺北市士林區福港街151號","lng":"121.517986","lat":"25.087458","modifydate":"2013-03-29T10:57:51+08:00"},{"unit":"台北市政府環境保護局","title":"公廁坐落：財政部臺北國稅局士林稽徵所二樓","dep_content":"座數：2，特優級：2，優等級：0，普通級：0，加強級：0","address":"臺北市士林區美崙街43號","lng":"121.522926","lat":"25.097099","modifydate":"2013-05-29T09:52:43+08:00"},{"unit":"台北市政府環境保護局","title":"公廁坐落：救國團劍潭海外青年活動中心","dep_content":"座數：23，特優級：17，優等級：6，普通級：0，加強級：0，無障礙設施","address":"臺北市士林區中山北路四段16號","lng":"121.523964","lat":"25.078049","modifydate":"2013-03-29T10:52:05+08:00"},{"unit":"台北市政府環境保護局","title":"公廁坐落：溪山派出所","dep_content":"座數：1，特優級：0，優等級：1，普通級：0，加強級：0，無障礙設施","address":"臺北市士林區至善路三段263號","lng":"121.584565","lat":"25.119766","modifydate":"2013-09-23T17:10:25+08:00"},{"unit":"台北市政府環境保護局","title":"公廁坐落：翠山派出所","dep_content":"座數：1，特優級：0，優等級：1，普通級：0，加強級：0，無障礙設施","address":"臺北市士林區中社路一段56號","lng":"121.560269","lat":"25.108065","modifydate":"2013-03-29T10:59:22+08:00"},{"unit":"台北市政府環境保護局","title":"公廁坐落：臺北市士林區公民會館","dep_content":"座數：5，特優級：5，優等級：0，普通級：0，加強級：0，無障礙設施","address":"臺北市士林區士林區大東路75號","lng":"121.52559","lat":"25.090846","modifydate":"2013-06-13T17:01:45+08:00"},{"unit":"台北市政府環境保護局","title":"公廁坐落：臺北市士林區公所","dep_content":"座數：12，特優級：12，優等級：0，普通級：0，加強級：0，無障礙設施","address":"臺北市士林區中正路439號","lng":"121.51967","lat":"25.092808","modifydate":"2013-03-27T15:12:47+08:00"},{"unit":"台北市政府環境保護局","title":"公廁坐落：臺北市士林區戶政事務所","dep_content":"座數：9，特優級：9，優等級：0，普通級：0，加強級：0，無障礙設施","address":"臺北市士林區中正路439號3樓","lng":"121.51967","lat":"25.092808","modifydate":"2014-03-13T11:24:10+08:00"},{"unit":"台北市政府環境保護局","title":"公廁坐落：臺北市士林區健康服務中心","dep_content":"座數：4，特優級：4，優等級：0，普通級：0，加強級：0，無障礙設施","address":"臺北市士林區中正路439號2樓","lng":"121.51967","lat":"25.092808","modifydate":"2013-02-23T16:10:30+08:00"},{"unit":"台北市政府環境保護局","title":"公廁坐落：臺北市立圖書館士林分館","dep_content":"座數：2，特優級：2，優等級：0，普通級：0，加強級：0，無障礙設施","address":"臺北市士林區華聲街17號3樓","lng":"121.522253","lat":"25.096278","modifydate":"2013-03-27T15:09:54+08:00"},{"unit":"台北市政府環境保護局","title":"公廁坐落：臺北市立圖書館天母分館","dep_content":"座數：6，特優級：6，優等級：0，普通級：0，加強級：0，無障礙設施","address":"臺北市士林區中山北路七段154巷6號3樓","lng":"121.532946","lat":"25.123421","modifydate":"2013-03-27T15:13:33+08:00"},{"unit":"台北市政府環境保護局","title":"公廁坐落：臺北市立圖書館葫蘆堵分館","dep_content":"座數：14，特優級：10，優等級：4，普通級：0，加強級：0，無障礙設施","address":"臺北市士林區延平北路五段136巷1號5樓","lng":"121.511024","lat":"25.07924","modifydate":"2013-03-29T10:54:35+08:00"},{"unit":"台北市政府環境保護局","title":"公廁坐落：臺北市稅捐稽徵處士林分處","dep_content":"座數：3，特優級：3，優等級：0，普通級：0，加強級：0，無障礙設施","address":"臺北市士林區美崙街41號","lng":"121.522901","lat":"25.097098","modifydate":"2013-09-13T11:05:14+08:00"},{"unit":"台北市政府環境保護局","title":"公廁坐落：臺北市職能發展學院","dep_content":"座數：26，特優級：24，優等級：2，普通級：0，加強級：0，無障礙設施","address":"臺北市士林區士東路301號","lng":"121.537773","lat":"25.11374","modifydate":"2013-06-27T08:57:05+08:00"},{"unit":"台北市政府環境保護局","title":"公廁坐落：臺北自來水事業處陽明營業處","dep_content":"座數：4，特優級：4，優等級：0，普通級：0，加強級：0，無障礙設施","address":"臺北市士林區中山北路五段82號之1","lng":"121.526036","lat":"25.08395","modifydate":"2013-03-29T10:45:50+08:00"},{"unit":"台北市政府環境保護局","title":"公廁坐落：臺灣士林地方法院檢察署","dep_content":"座數：5，特優級：4，優等級：1，普通級：0，加強級：0，無障礙設施","address":"臺北市士林區士東路190號","lng":"121.53308","lat":"25.112514","modifydate":"2013-02-25T14:11:51+08:00"},{"unit":"台北市政府環境保護局","title":"公廁坐落：蘭雅派出所","dep_content":"座數：1，特優級：0，優等級：1，普通級：0，加強級：0","address":"臺北市士林區中山北路六段153號1樓","lng":"121.524711","lat":"25.106504","modifydate":"2013-03-29T10:59:53+08:00"},{"unit":"台北市政府環境保護局","title":"公廁坐落：ISSCOFFEE基河店","dep_content":"座數：1，特優級：0，優等級：0，普通級：1，加強級：0","address":"臺北市士林區基河路250號","lng":"121.520977","lat":"25.092187","modifydate":"2014-03-11T16:45:58+08:00"},{"unit":"台北市政府環境保護局","title":"公廁坐落：Lacuz餐廳","dep_content":"座數：2，特優級：0，優等級：2，普通級：0，加強級：0","address":"臺北市士林區中山北路五段437號","lng":"121.527135","lat":"25.091507","modifydate":"2014-03-27T16:12:56+08:00"},{"unit":"台北市政府環境保護局","title":"公廁坐落：SUBWAY天母東路門市","dep_content":"座數：1，特優級：0，優等級：1，普通級：0，加強級：0","address":"臺北市士林區天母東路31號","lng":"121.53196","lat":"25.118301","modifydate":"2014-02-17T16:08:38+08:00"},{"unit":"台北市政府環境保護局","title":"公廁坐落：SUBWAY美國學校門市","dep_content":"座數：1，特優級：0，優等級：1，普通級：0，加強級：0","address":"臺北市士林區中山北路六段442號","lng":"121.5274","lat":"25.1141","modifydate":"2013-09-23T17:14:11+08:00"},{"unit":"台北市政府環境保護局","title":"公廁坐落：三商巧福士林店","dep_content":"座數：1，特優級：0，優等級：1，普通級：0，加強級：0","address":"臺北市士林區中正路331號1樓","lng":"121.523123","lat":"25.09483","modifydate":"2014-05-02T00:00:00+08:00"},{"unit":"台北市政府環境保護局","title":"公廁坐落：丹堤咖啡士東店","dep_content":"座數：1，特優級：0，優等級：1，普通級：0，加強級：0","address":"臺北市士林區士東路130號","lng":"121.530418","lat":"25.112686","modifydate":"2014-04-18T10:35:33+08:00"},{"unit":"台北市政府環境保護局","title":"公廁坐落：丹堤咖啡士林店","dep_content":"座數：2，特優級：0，優等級：2，普通級：0，加強級：0","address":"臺北市士林區 中正路296號","lng":"121.523319","lat":"25.094894","modifydate":"2014-05-02T00:00:00+08:00"},{"unit":"台北市政府環境保護局","title":"公廁坐落：丹堤咖啡士林劍潭門市","dep_content":"座數：1，特優級：0，優等級：1，普通級：0，加強級：0","address":"臺北市士林區承德路四段50號","lng":"121.522543","lat":"25.081926","modifydate":"2014-04-10T15:38:52+08:00"},{"unit":"台北市政府環境保護局","title":"公廁坐落：丹堤咖啡中山德行店","dep_content":"座數：1，特優級：0，優等級：1，普通級：0，加強級：0","address":"臺北市士林區中山北路六段134號136號1樓","lng":"121.525154","lat":"25.105974","modifydate":"2013-04-01T17:50:45+08:00"},{"unit":"台北市政府環境保護局","title":"公廁坐落：丹堤咖啡天母東店","dep_content":"座數：2，特優級：0，優等級：2，普通級：0，加強級：0","address":"臺北市士林區天母東路37號","lng":"121.532006","lat":"25.118612","modifydate":"2014-04-18T10:34:05+08:00"},{"unit":"台北市政府環境保護局","title":"公廁坐落：巴登食坊","dep_content":"座數：1，特優級：0，優等級：1，普通級：0，加強級：0","address":"臺北市士林區天母東路69巷11之4號","lng":"121.533895","lat":"25.119953","modifydate":"2014-03-27T16:13:09+08:00"},{"unit":"台北市政府環境保護局","title":"公廁坐落：方家小館","dep_content":"座數：2，特優級：2，優等級：0，普通級：0，加強級：0","address":"臺北市士林區天母東路7號","lng":"121.531341","lat":"25.118651","modifydate":"2014-03-27T16:02:03+08:00"},{"unit":"台北市政府環境保護局","title":"公廁坐落：禾米美食","dep_content":"座數：1，特優級：0，優等級：1，普通級：0，加強級：0","address":"臺北市士林區中山北路六段435號","lng":"121.527221","lat":"25.114921","modifydate":"2014-03-27T16:02:30+08:00"},{"unit":"台北市政府環境保護局","title":"公廁坐落：我家牛排天母店","dep_content":"座數：1，特優級：0，優等級：1，普通級：0，加強級：0","address":"臺北市士林區天母西路13巷13號","lng":"121.527286","lat":"25.120244","modifydate":"2014-03-27T16:02:17+08:00"},{"unit":"台北市政府環境保護局","title":"公廁坐落：怡客咖啡士東店","dep_content":"座數：1，特優級：1，優等級：0，普通級：0，加強級：0","address":"臺北市士林區士東路97號","lng":"121.5294","lat":"25.1123","modifydate":"2013-08-19T17:04:15+08:00"},{"unit":"台北市政府環境保護局","title":"公廁坐落：怡客咖啡天母店","dep_content":"座數：1，特優級：0，優等級：1，普通級：0，加強級：0","address":"臺北市士林區天母東路69巷1號","lng":"121.534428","lat":"25.118845","modifydate":"2014-02-17T15:54:39+08:00"},{"unit":"台北市政府環境保護局","title":"公廁坐落：爭鮮士林門市","dep_content":"座數：1，特優級：0，優等級：1，普通級：0，加強級：0","address":"臺北市士林區中正路230號","lng":"121.525826","lat":"25.095859","modifydate":"2014-05-02T00:00:00+08:00"},{"unit":"台北市政府環境保護局","title":"公廁坐落：爭鮮迴轉壽司基河店","dep_content":"座數：2，特優級：0，優等級：2，普通級：0，加強級：0","address":"臺北市士林區基河路258號","lng":"121.520591","lat":"25.092226","modifydate":"2012-10-01T09:32:08+08:00"},{"unit":"台北市政府環境保護局","title":"公廁坐落：肯德基士林分公司","dep_content":"座數：1，特優級：0，優等級：0，普通級：1，加強級：0","address":"臺北市士林區文林路88號","lng":"121.52597","lat":"25.087298","modifydate":"2013-04-01T18:12:07+08:00"},{"unit":"台北市政府環境保護局","title":"公廁坐落：肯德基天母分公司","dep_content":"座數：2，特優級：0，優等級：2，普通級：0，加強級：0","address":"臺北市士林區天母東路6之4號1樓","lng":"121.530798","lat":"25.117976","modifydate":"2012-11-16T17:23:41+08:00"},{"unit":"台北市政府環境保護局","title":"公廁坐落：拿坡里士林店","dep_content":"座數：1，特優級：0，優等級：1，普通級：0，加強級：0","address":"臺北市士林區文林路430號1樓","lng":"121.524861","lat":"25.095043","modifydate":"2014-05-02T00:00:00+08:00"},{"unit":"台北市政府環境保護局","title":"公廁坐落：統一星巴克士林門市","dep_content":"座數：2，特優級：0，優等級：2，普通級：0，加強級：0","address":"臺北市士林區文林路122號1樓","lng":"121.526477","lat":"25.088352","modifydate":"2014-05-02T00:00:00+08:00"},{"unit":"台北市政府環境保護局","title":"公廁坐落：統一星巴克士捷門市","dep_content":"座數：1，特優級：0，優等級：1，普通級：0，加強級：0","address":"臺北市士林區中正路239號1樓","lng":"121.525784","lat":"25.095607","modifydate":"2014-05-02T00:00:00+08:00"},{"unit":"台北市政府環境保護局","title":"公廁坐落：統一星巴克天母忠誠門市","dep_content":"座數：1，特優級：0，優等級：1，普通級：0，加強級：0","address":"臺北市士林區天母東路67-1號1樓","lng":"121.534324","lat":"25.118729","modifydate":"2014-04-18T10:34:26+08:00"},{"unit":"台北市政府環境保護局","title":"公廁坐落：統一星巴克忠誠門市","dep_content":"座數：1，特優級：0，優等級：1，普通級：0，加強級：0","address":"臺北市士林區士東路123號","lng":"121.530848","lat":"25.11292","modifydate":"2014-04-18T10:33:43+08:00"},{"unit":"台北市政府環境保護局","title":"公廁坐落：統一星巴克新天母門市","dep_content":"座數：1，特優級：0，優等級：1，普通級：0，加強級：0","address":"臺北市士林區天母西路33號1樓","lng":"121.527715","lat":"25.119059","modifydate":"2014-04-18T10:35:05+08:00"},{"unit":"台北市政府環境保護局","title":"公廁坐落：頂呱呱福林店","dep_content":"座數：1，特優級：0，優等級：0，普通級：1，加強級：0","address":"臺北市士林區中正路235巷10號1樓","lng":"121.526023","lat":"25.094822","modifydate":"2014-05-02T00:00:00+08:00"},{"unit":"台北市政府環境保護局","title":"公廁坐落：麥當勞士林中正分公司","dep_content":"座數：2，特優級：0，優等級：2，普通級：0，加強級：0","address":"臺北市士林區中正路287號","lng":"121.524061","lat":"25.094728","modifydate":"2014-05-02T00:00:00+08:00"},{"unit":"台北市政府環境保護局","title":"公廁坐落：麥當勞士林分公司","dep_content":"座數：2，特優級：0，優等級：1，普通級：1，加強級：0","address":"臺北市士林區中山北路五段602號","lng":"121.528052","lat":"25.095924","modifydate":"2014-05-02T00:00:00+08:00"},{"unit":"台北市政府環境保護局","title":"公廁坐落：麥當勞天母分公司","dep_content":"座數：1，特優級：0，優等級：0，普通級：1，加強級：0","address":"臺北市士林區天母西路9號1樓及地下1樓","lng":"121.528971","lat":"25.11856","modifydate":"2013-04-01T17:35:25+08:00"},{"unit":"台北市政府環境保護局","title":"公廁坐落：麥當勞台北格致分公司","dep_content":"座數：1，特優級：0，優等級：1，普通級：0，加強級：0","address":"臺北市士林區格致路58之62號1.2樓","lng":"121.54666","lat":"25.137706","modifydate":"2014-03-24T16:49:40+08:00"},{"unit":"台北市政府環境保護局","title":"公廁坐落：麥當勞台北德行分公司","dep_content":"座數：1，特優級：0，優等級：1，普通級：0，加強級：0","address":"臺北市士林區德行東路227號","lng":"121.533094","lat":"25.109493","modifydate":"2012-12-03T18:03:55+08:00"},{"unit":"台北市政府環境保護局","title":"公廁坐落：麥當勞重慶分公司","dep_content":"座數：1，特優級：0，優等級：1，普通級：0，加強級：0，無障礙設施","address":"臺北市士林區重慶北路四段123號","lng":"121.512179","lat":"25.082593","modifydate":"2013-04-01T16:43:28+08:00"},{"unit":"台北市政府環境保護局","title":"公廁坐落：麥當勞臺北承德三門市","dep_content":"座數：1，特優級：0，優等級：1，普通級：0，加強級：0","address":"臺北市士林區承德路四段128號","lng":"121.5233","lat":"25.0837","modifydate":"2013-08-12T18:05:52+08:00"},{"unit":"台北市政府環境保護局","title":"公廁坐落：陽明山中國麗緻大飯店","dep_content":"座數：2，特優級：2，優等級：0，普通級：0，加強級：0","address":"臺北市士林區格致路237號","lng":"121.548725","lat":"25.143271","modifydate":"2013-05-27T16:41:21+08:00"},{"unit":"台北市政府環境保護局","title":"公廁坐落：摩斯漢堡士東店","dep_content":"座數：1，特優級：0，優等級：1，普通級：0，加強級：0","address":"臺北市士林區中山北路六段730號","lng":"121.530461","lat":"25.11325","modifydate":"2014-04-18T10:35:21+08:00"},{"unit":"台北市政府環境保護局","title":"公廁坐落：摩斯漢堡天母店","dep_content":"座數：1，特優級：0，優等級：1，普通級：0，加強級：0","address":"臺北市士林區天母北路85號","lng":"121.526942","lat":"25.122109","modifydate":"2014-04-18T10:34:45+08:00"},{"unit":"台北市政府環境保護局","title":"公廁坐落：摩斯漢堡天母東路店","dep_content":"座數：1，特優級：0，優等級：1，普通級：0，加強級：0","address":"臺北市士林區天母東路21號","lng":"121.531786","lat":"25.118237","modifydate":"2013-04-01T17:35:38+08:00"},{"unit":"台北市政府環境保護局","title":"公廁坐落：摩斯漢堡忠誠店","dep_content":"座數：1，特優級：0，優等級：1，普通級：0，加強級：0","address":"臺北市士林區忠誠路一段188號1樓","lng":"121.530115","lat":"25.108188","modifydate":"2013-04-01T18:08:29+08:00"},{"unit":"台北市政府環境保護局","title":"公廁坐落：摩斯漢堡格致店","dep_content":"座數：1，特優級：0，優等級：1，普通級：0，加強級：0","address":"臺北市士林區格致路59號","lng":"121.546447","lat":"25.138486","modifydate":"2013-03-05T17:28:49+08:00"},{"unit":"台北市政府環境保護局","title":"公廁坐落：摩斯漢堡福林分公司","dep_content":"座數：1，特優級：0，優等級：1，普通級：0，加強級：0","address":"臺北市士林區福林路189號1樓","lng":"121.53252","lat":"25.096938","modifydate":"2014-05-02T00:00:00+08:00"},{"unit":"台北市政府環境保護局","title":"公廁坐落：華威天母影城","dep_content":"座數：9，特優級：8，優等級：1，普通級：0，加強級：0","address":"臺北市士林區忠誠路二段202號4樓","lng":"121.534193","lat":"25.117139","modifydate":"2013-08-09T09:02:51+08:00"},{"unit":"台北市政府環境保護局","title":"公廁坐落：陽明戲院","dep_content":"座數：2，特優級：0，優等級：2，普通級：0，加強級：0，無障礙設施","address":"臺北市士林區文林路113號","lng":"121.526124","lat":"25.088208","modifydate":"2014-03-13T15:56:13+08:00"},{"unit":"台北市政府環境保護局","title":"公廁坐落：士林11號","dep_content":"座數：1，特優級：0，優等級：1，普通級：0，加強級：0","address":"臺北市士林區中山北路五段280巷14弄5號邊","lng":"121.528224","lat":"25.08707","modifydate":"2013-03-06T16:58:02+08:00"},{"unit":"台北市政府環境保護局","title":"公廁坐落：士林1號","dep_content":"座數：1，特優級：0，優等級：1，普通級：0，加強級：0，無障礙設施","address":"臺北市士林區大東路165號士林國小對面","lng":"121.525154","lat":"25.093267","modifydate":"2013-03-06T16:57:02+08:00"},{"unit":"台北市政府環境保護局","title":"公廁坐落：士林7號","dep_content":"座數：1，特優級：0，優等級：1，普通級：0，加強級：0，無障礙設施","address":"臺北市士林區延平北路七段218巷15號邊","lng":"121.490175","lat":"25.101869","modifydate":"2013-03-06T16:57:32+08:00"},{"unit":"台北市政府環境保護局","title":"公廁坐落：新光醫院","dep_content":"座數：37，特優級：31，優等級：6，普通級：0，加強級：0，無障礙設施","address":"臺北市士林區文昌路95號","lng":"121.520908","lat":"25.096428","modifydate":"2013-04-01T10:37:08+08:00"},{"unit":"台北市政府環境保護局","title":"公廁坐落：新光醫院聖賢樓","dep_content":"座數：18，特優級：18，優等級：0，普通級：0，加強級：0，無障礙設施","address":"臺北市士林區士商路51號","lng":"121.519711","lat":"25.091196","modifydate":"2013-04-01T11:08:37+08:00"},{"unit":"台北市政府環境保護局","title":"公廁坐落：臺北市立聯合醫院士林門診","dep_content":"座數：2，特優級：0，優等級：2，普通級：0，加強級：0","address":"臺北市士林區中正路439號","lng":"121.51967","lat":"25.092808","modifydate":"2013-02-26T17:30:23+08:00"},{"unit":"台北市政府環境保護局","title":"公廁坐落：臺北市立聯合醫院陽明院區　　　　","dep_content":"座數：11，特優級：11，優等級：0，普通級：0，加強級：0","address":"臺北市士林區雨聲街105號","lng":"121.53175","lat":"25.105287","modifydate":"2013-03-19T17:54:02+08:00"},{"unit":"台北市政府環境保護局","title":"公廁坐落：玉泉公園","dep_content":"座數：2，特優級：0，優等級：1，普通級：1，加強級：0，無障礙設施","address":"臺北市大同區西寧北路28號","lng":"121.507347","lat":"25.049723","modifydate":"2013-03-25T18:02:27+08:00"},{"unit":"台北市政府環境保護局","title":"公廁坐落：樹德公園","dep_content":"座數：2，特優級：0，優等級：2，普通級：0，加強級：0，無障礙設施","address":"臺北市大同區大龍街90之10號前","lng":"121.516499","lat":"25.067032","modifydate":"2013-03-08T11:10:09+08:00"},{"unit":"台北市政府環境保護局","title":"公廁坐落：歸綏公園","dep_content":"座數：2，特優級：0，優等級：2，普通級：0，加強級：0，無障礙設施","address":"臺北市大同區重慶北路及歸綏街口","lng":"121.51329","lat":"25.058015","modifydate":"2013-03-25T17:50:32+08:00"},{"unit":"台北市政府環境保護局","title":"公廁坐落：蘭州公園","dep_content":"座數：1，特優級：0，優等級：1，普通級：0，加強級：0，無障礙設施","address":"臺北市大同區蘭州街89巷前","lng":"121.515636","lat":"25.064295","modifydate":"2013-03-08T11:09:42+08:00"},{"unit":"台北市政府環境保護局","title":"公廁坐落：中油民權西路站","dep_content":"座數：1，特優級：0，優等級：1，普通級：0，加強級：0，無障礙設施","address":"臺北市大同區民權西路194號","lng":"121.514394","lat":"25.062837","modifydate":"2014-02-12T14:07:26+08:00"},{"unit":"台北市政府環境保護局","title":"公廁坐落：公有大龍市場","dep_content":"座數：4，特優級：0，優等級：2，普通級：2，加強級：0","address":"臺北市大同區重慶北路三段347號","lng":"121.51416","lat":"25.074936","modifydate":"2014-01-15T17:46:43+08:00"},{"unit":"台北市政府環境保護局","title":"公廁坐落：公有永樂市場","dep_content":"座數：14，特優級：0，優等級：14，普通級：0，加強級：0，無障礙設施","address":"臺北市大同區迪化街一段21號","lng":"121.510334","lat":"25.054812","modifydate":"2014-01-15T17:48:48+08:00"},{"unit":"台北市政府環境保護局","title":"公廁坐落：公有雙連市場","dep_content":"座數：2，特優級：0，優等級：2，普通級：0，加強級：0","address":"臺北市大同區民生西路198號","lng":"121.515851","lat":"25.056947","modifydate":"2014-02-05T15:48:58+08:00"},{"unit":"台北市政府環境保護局","title":"公廁坐落：公有蘭州市場","dep_content":"座數：1，特優級：0，優等級：1，普通級：0，加強級：0，無障礙設施","address":"臺北市大同區昌吉街55號","lng":"121.515667","lat":"25.06601","modifydate":"2014-01-15T17:53:42+08:00"},{"unit":"台北市政府環境保護局","title":"公廁坐落：大稻埕公園地下停車場","dep_content":"座數：3，特優級：1，優等級：2，普通級：0，加強級：0，無障礙設施","address":"臺北市大同區歸綏街243號地下","lng":"121.510314","lat":"25.058348","modifydate":"2014-02-10T09:43:58+08:00"},{"unit":"台北市政府環境保護局","title":"公廁坐落：大龍國小地下停車場","dep_content":"座數：2，特優級：1，優等級：1，普通級：0，加強級：0，無障礙設施","address":"臺北市大同區哈密街47號地下","lng":"121.516707","lat":"25.073472","modifydate":"2014-03-14T16:46:59+08:00"},{"unit":"台北市政府環境保護局","title":"公廁坐落：市民大道塔城段地下停車場","dep_content":"座數：2，特優級：0，優等級：1，普通級：1，加強級：0","address":"臺北市大同區西寧北路-塔城街間地下","lng":"121.508364","lat":"25.050473","modifydate":"2013-03-04T17:14:47+08:00"},{"unit":"台北市政府環境保護局","title":"公廁坐落：成淵高中地下停車場","dep_content":"座數：1，特優級：0，優等級：1，普通級：0，加強級：0，無障礙設施","address":"臺北市大同區承德路二段235號之1地下室","lng":"121.519854","lat":"25.060415","modifydate":"2014-02-12T13:58:56+08:00"},{"unit":"台北市政府環境保護局","title":"公廁坐落：建成公園地下停車場","dep_content":"座數：3，特優級：1，優等級：2，普通級：0，加強級：0，無障礙設施","address":"臺北市大同區承德路二段31號","lng":"25.054122","lat":"121.518102","modifydate":"2012-11-16T17:04:32+08:00"},{"unit":"台北市政府環境保護局","title":"公廁坐落：建成國中地下停車場","dep_content":"座數：2，特優級：0，優等級：2，普通級：0，加強級：0","address":"臺北市大同區長安西路37號之1地下室","lng":"121.519621","lat":"25.050483","modifydate":"2013-03-04T16:57:13+08:00"},{"unit":"台北市政府環境保護局","title":"公廁坐落：捷運大橋頭站(新蘆線)","dep_content":"座數：4，特優級：4，優等級：0，普通級：0，加強級：0，無障礙設施","address":"臺北市大同區民權西路223號","lng":"121.512179","lat":"25.063116","modifydate":"2013-03-21T16:33:01+08:00"},{"unit":"台北市政府環境保護局","title":"公廁坐落：捷運民權西站","dep_content":"座數：2，特優級：2，優等級：0，普通級：0，加強級：0，無障礙設施","address":"臺北市大同區民權西路72號","lng":"121.519346","lat":"25.062879","modifydate":"2013-08-02T09:50:08+08:00"},{"unit":"台北市政府環境保護局","title":"公廁坐落：捷運民權西路站(新蘆線)","dep_content":"座數：4，特優級：4，優等級：0，普通級：0，加強級：0，無障礙設施","address":"臺北市大同區民權西路72號1F","lng":"121.519346","lat":"25.062879","modifydate":"2013-08-02T09:49:47+08:00"},{"unit":"台北市政府環境保護局","title":"公廁坐落：捷運圓山站","dep_content":"座數：2，特優級：2，優等級：0，普通級：0，加強級：0，無障礙設施","address":"臺北市大同區酒泉街9之1號","lng":"121.519628","lat":"25.070579","modifydate":"2013-03-08T11:05:53+08:00"},{"unit":"台北市政府環境保護局","title":"公廁坐落：捷運雙連站","dep_content":"座數：2，特優級：2，優等級：0，普通級：0，加強級：0，無障礙設施","address":"臺北市大同區民生西路47號","lng":"121.520627","lat":"25.057805","modifydate":"2013-03-08T11:03:43+08:00"},{"unit":"台北市政府環境保護局","title":"公廁坐落：揚雅立體停車場","dep_content":"座數：1，特優級：0，優等級：1，普通級：0，加強級：0，無障礙設施","address":"臺北市大同區大龍街136號","lng":"121.515846","lat":"25.067427","modifydate":"2013-03-04T16:59:15+08:00"},{"unit":"台北市政府環境保護局","title":"公廁坐落：朝陽公園地下停車場","dep_content":"座數：2，特優級：0，優等級：2，普通級：0，加強級：0，無障礙設施","address":"臺北市大同區重慶北路二段68號B1","lng":"121.513168","lat":"25.055952","modifydate":"2013-03-04T17:24:47+08:00"},{"unit":"台北市政府環境保護局","title":"公廁坐落：塔城公園地下停車場","dep_content":"座數：2，特優級：0，優等級：2，普通級：0，加強級：0","address":"臺北市大同區塔城街11號地下","lng":"121.510509","lat":"25.050673","modifydate":"2013-03-04T17:15:22+08:00"},{"unit":"台北市政府環境保護局","title":"公廁坐落：臺北轉運站","dep_content":"座數：11，特優級：0，優等級：11，普通級：0，加強級：0，無障礙設施","address":"臺北市大同區市民大道一段209號","lng":"121.518569","lat":"25.048786","modifydate":"2013-02-26T16:46:08+08:00"},{"unit":"台北市政府環境保護局","title":"公廁坐落：蓬萊國小地下停車場","dep_content":"座數：4，特優級：0，優等級：4，普通級：0，加強級：0，無障礙設施","address":"臺北市大同區寧夏路35號B1","lng":"121.515527","lat":"25.056814","modifydate":"2013-03-21T16:35:07+08:00"},{"unit":"台北市政府環境保護局","title":"公廁坐落：京站時尚廣場","dep_content":"座數：20，特優級：20，優等級：0，普通級：0，加強級：0，無障礙設施","address":"臺北市大同區承德路一段1號","lng":"121.516825","lat":"25.049345","modifydate":"2014-04-29T14:06:09+08:00"},{"unit":"台北市政府環境保護局","title":"公廁坐落：家樂福重慶店","dep_content":"座數：11，特優級：0，優等級：10，普通級：1，加強級：0，無障礙設施","address":"臺北市大同區重慶北路二段171號","lng":"121.513781","lat":"25.059564","modifydate":"2013-03-26T16:37:51+08:00"},{"unit":"台北市政府環境保護局","title":"公廁坐落：孔廟","dep_content":"座數：2，特優級：2，優等級：0，普通級：0，加強級：0，無障礙設施","address":"臺北市大同區大龍街275號","lng":"121.516095","lat":"25.072453","modifydate":"2013-04-16T15:08:51+08:00"},{"unit":"台北市政府環境保護局","title":"公廁坐落：保安宮","dep_content":"座數：4，特優級：2，優等級：2，普通級：0，加強級：0，無障礙設施","address":"臺北市大同區哈密街61號","lng":"121.51542","lat":"25.073159","modifydate":"2013-04-16T14:08:11+08:00"},{"unit":"台北市政府環境保護局","title":"公廁坐落：財團法人臺北市覺修宮","dep_content":"座數：3，特優級：0，優等級：3，普通級：0，加強級：0","address":"臺北市大同區重慶北路三段340號","lng":"121.513543","lat":"25.076291","modifydate":"2012-09-14T16:27:06+08:00"},{"unit":"台北市政府環境保護局","title":"公廁坐落：臺北市大同運動中心","dep_content":"座數：11，特優級：8，優等級：3，普通級：0，加強級：0，無障礙設施","address":"臺北市大同區大龍街51號","lng":"121.516314","lat":"25.064665","modifydate":"2013-05-29T10:37:48+08:00"},{"unit":"台北市政府環境保護局","title":"公廁坐落：臺北當代藝術館","dep_content":"座數：2，特優級：2，優等級：0，普通級：0，加強級：0，無障礙設施","address":"臺北市大同區長安西路39號","lng":"121.518381","lat":"25.050821","modifydate":"2013-05-29T10:31:37+08:00"},{"unit":"台北市政府環境保護局","title":"公廁坐落：臺北市大同區大同國民小學","dep_content":"座數：12，特優級：12，優等級：0，普通級：0，加強級：0，無障礙設施","address":"臺北市大同區大龍街51號","lng":"121.516314","lat":"25.064665","modifydate":"2012-09-26T16:26:52+08:00"},{"unit":"台北市政府環境保護局","title":"公廁坐落：臺北市大同區大橋國民小學","dep_content":"座數：26，特優級：10，優等級：16，普通級：0，加強級：0，無障礙設施","address":"臺北市大同區重慶北路三段2號","lng":"121.513341","lat":"25.063836","modifydate":"2013-05-03T15:02:37+08:00"},{"unit":"台北市政府環境保護局","title":"公廁坐落：臺北市大同區大龍國民小學","dep_content":"座數：24，特優級：2，優等級：21，普通級：1，加強級：0，無障礙設施","address":"臺北市大同區哈密街47號","lng":"121.516697","lat":"25.07351","modifydate":"2013-05-03T15:26:20+08:00"},{"unit":"台北市政府環境保護局","title":"公廁坐落：臺北市大同區太平國民小學","dep_content":"座數：20，特優級：0，優等級：20，普通級：0，加強級：0，無障礙設施","address":"臺北市大同區延平北路二段239號","lng":"121.511472","lat":"25.061402","modifydate":"2014-04-16T13:53:29+08:00"},{"unit":"台北市政府環境保護局","title":"公廁坐落：臺北市大同區日新國民小學","dep_content":"座數：20，特優級：1，優等級：17，普通級：2，加強級：0","address":"臺北市大同區太原路151號","lng":"121.516548","lat":"25.054464","modifydate":"2013-04-02T17:09:54+08:00"},{"unit":"台北市政府環境保護局","title":"公廁坐落：臺北市大同區永樂國民小學","dep_content":"座數：23，特優級：0，優等級：23，普通級：0，加強級：0","address":"臺北市大同區延平北路二段266號","lng":"121.511113","lat":"25.061243","modifydate":"2014-04-16T11:24:04+08:00"},{"unit":"台北市政府環境保護局","title":"公廁坐落：臺北市大同區延平國民小學","dep_content":"座數：15，特優級：0，優等級：15，普通級：0，加強級：0，無障礙設施","address":"臺北市大同區昌吉街97號","lng":"121.512546","lat":"25.066129","modifydate":"2012-12-19T11:06:46+08:00"},{"unit":"台北市政府環境保護局","title":"公廁坐落：臺北市大同區明倫國民小學","dep_content":"座數：9，特優級：0，優等級：9，普通級：0，加強級：0","address":"臺北市大同區承德路三段285號","lng":"121.519675","lat":"25.073512","modifydate":"2012-10-16T15:26:51+08:00"},{"unit":"台北市政府環境保護局","title":"公廁坐落：臺北市大同區蓬萊國民小學","dep_content":"座數：30，特優級：21，優等級：9，普通級：0，加強級：0，無障礙設施","address":"臺北市大同區寧夏路35號","lng":"121.515627","lat":"25.056378","modifydate":"2014-04-28T09:28:06+08:00"},{"unit":"台北市政府環境保護局","title":"公廁坐落：臺北市大同區雙蓮國民小學","dep_content":"座數：31，特優級：10，優等級：19，普通級：2，加強級：0，無障礙設施","address":"臺北市大同區錦西街51號","lng":"121.51693","lat":"25.060332","modifydate":"2013-10-28T17:32:49+08:00"},{"unit":"台北市政府環境保護局","title":"公廁坐落：臺北市立民權國民中學","dep_content":"座數：11，特優級：2，優等級：8，普通級：1，加強級：0，無障礙設施","address":"臺北市大同區重慶北路三段1號","lng":"121.513848","lat":"25.063479","modifydate":"2013-06-06T10:20:12+08:00"},{"unit":"台北市政府環境保護局","title":"公廁坐落：臺北市立成淵高級中學","dep_content":"座數：48，特優級：4，優等級：42，普通級：2，加強級：0，無障礙設施","address":"臺北市大同區承德路二段235號","lng":"121.51866","lat":"25.061357","modifydate":"2012-11-05T15:05:39+08:00"},{"unit":"台北市政府環境保護局","title":"公廁坐落：臺北市立忠孝國民中學","dep_content":"座數：29，特優級：9，優等級：20，普通級：0，加強級：0","address":"臺北市大同區西寧北路32號","lng":"121.508196","lat":"25.051345","modifydate":"2013-03-19T15:06:12+08:00"},{"unit":"台北市政府環境保護局","title":"公廁坐落：臺北市立明倫高級中學","dep_content":"座數：15，特優級：2，優等級：12，普通級：1，加強級：0，無障礙設施","address":"臺北市大同區承德路三段336號","lng":"121.519401","lat":"25.075563","modifydate":"2013-06-05T10:17:36+08:00"},{"unit":"台北市政府環境保護局","title":"公廁坐落：臺北市立建成國民中學","dep_content":"座數：30，特優級：10，優等級：20，普通級：0，加強級：0，無障礙設施","address":"臺北市大同區長安西路37-1號","lng":"121.51853","lat":"25.051459","modifydate":"2014-03-17T14:03:27+08:00"},{"unit":"台北市政府環境保護局","title":"公廁坐落：臺北市立重慶國民中學","dep_content":"座數：8，特優級：0，優等級：8，普通級：0，加強級：0","address":"臺北市大同區敦煌路19號","lng":"121.518074","lat":"25.076026","modifydate":"2012-10-16T15:30:22+08:00"},{"unit":"台北市政府環境保護局","title":"公廁坐落：臺北市立啟聰學校","dep_content":"座數：26，特優級：13，優等級：13，普通級：0，加強級：0，無障礙設施","address":"臺北市大同區重慶北路三段320號","lng":"121.513615","lat":"25.075512","modifydate":"2013-06-05T10:23:53+08:00"},{"unit":"台北市政府環境保護局","title":"公廁坐落：臺北市立蘭州國民中學","dep_content":"座數：8，特優級：1，優等級：7，普通級：0，加強級：0","address":"臺北市大同區大龍街187巷1號","lng":"121.516413","lat":"25.069366","modifydate":"2013-10-14T18:11:48+08:00"},{"unit":"台北市政府環境保護局","title":"公廁坐落：臺北市私立志仁高中職業進修學校","dep_content":"座數：6，特優級：6，優等級：0，普通級：0，加強級：0，無障礙設施","address":"臺北市大同區南京西路64巷17號","lng":"121.518723","lat":"25.052047","modifydate":"2013-06-05T10:18:45+08:00"},{"unit":"台北市政府環境保護局","title":"公廁坐落：臺北市私立稻江高級商業職業學校","dep_content":"座數：12，特優級：5，優等級：7，普通級：0，加強級：0，無障礙設施","address":"臺北市大同區民權西路225巷24號","lng":"121.511988","lat":"25.064165","modifydate":"2013-11-22T17:13:16+08:00"},{"unit":"台北市政府環境保護局","title":"公廁坐落：臺北市私立靜修女子高級中學","dep_content":"座數：32，特優級：30，優等級：2，普通級：0，加強級：0，無障礙設施","address":"臺北市大同區寧夏路59號","lng":"121.515496","lat":"25.057931","modifydate":"2013-06-05T10:28:39+08:00"},{"unit":"台北市政府環境保護局","title":"公廁坐落：大橋派出所","dep_content":"座數：1，特優級：0，優等級：1，普通級：0，加強級：0","address":"臺北市大同區延平北路三段2號","lng":"121.510943","lat":"25.063401","modifydate":"2013-03-29T11:00:14+08:00"},{"unit":"台北市政府環境保護局","title":"公廁坐落：民生西路派出所","dep_content":"座數：1，特優級：0，優等級：1，普通級：0，加強級：0","address":"臺北市大同區保安街47-1號","lng":"121.512168","lat":"25.059152","modifydate":"2013-03-29T11:00:26+08:00"},{"unit":"台北市政府環境保護局","title":"公廁坐落：民族路派出所","dep_content":"座數：1，特優級：0，優等級：1，普通級：0，加強級：0","address":"臺北市大同區重慶北路三段168號","lng":"121.513505","lat":"25.068835","modifydate":"2013-02-25T09:10:13+08:00"},{"unit":"台北市政府環境保護局","title":"公廁坐落：延平派出所","dep_content":"座數：1，特優級：1，優等級：0，普通級：0，加強級：0，無障礙設施","address":"臺北市大同區延平北路一段86號","lng":"121.511729","lat":"25.052216","modifydate":"2013-03-29T11:00:49+08:00"},{"unit":"台北市政府環境保護局","title":"公廁坐落：承德就業服務站","dep_content":"座數：2，特優級：2，優等級：0，普通級：0，加強級：0，無障礙設施","address":"臺北市大同區承德路三段287-1號","lng":"121.51999","lat":"25.074871","modifydate":"2013-03-29T17:42:07+08:00"},{"unit":"台北市政府環境保護局","title":"公廁坐落：建成派出所","dep_content":"座數：1，特優級：1，優等級：0，普通級：0，加強級：0","address":"臺北市大同區承德路一段80號","lng":"121.517241","lat":"25.052818","modifydate":"2013-09-23T17:10:42+08:00"},{"unit":"台北市政府環境保護局","title":"公廁坐落：重慶北路派出所","dep_content":"座數：1，特優級：1，優等級：0，普通級：0，加強級：0","address":"臺北市大同區重慶北路三段320之2號","lng":"121.513685","lat":"25.075478","modifydate":"2013-03-29T11:01:25+08:00"},{"unit":"台北市政府環境保護局","title":"公廁坐落：財政部臺北國稅局大同稽徵所","dep_content":"座數：2，特優級：2，優等級：0，普通級：0，加強級：0，無障礙設施","address":"臺北市大同區昌吉街57號3樓","lng":"121.515458","lat":"25.066028","modifydate":"2013-05-29T09:54:46+08:00"},{"unit":"台北市政府環境保護局","title":"公廁坐落：勞工教育館","dep_content":"座數：4，特優級：4，優等級：0，普通級：0，加強級：0","address":"臺北市大同區承德路三段287號","lng":"121.51999","lat":"25.074871","modifydate":"2013-03-29T17:43:25+08:00"},{"unit":"台北市政府環境保護局","title":"公廁坐落：勞動檢查處","dep_content":"座數：1，特優級：0，優等級：1，普通級：0，加強級：0，無障礙設施","address":"臺北市大同區承德路三段287-2號","lng":"121.51999","lat":"25.074871","modifydate":"2013-03-29T17:42:24+08:00"},{"unit":"台北市政府環境保護局","title":"公廁坐落：寧夏派出所","dep_content":"座數：1，特優級：1，優等級：0，普通級：0，加強級：0","address":"臺北市大同區寧夏路89號","lng":"121.515116","lat":"25.059005","modifydate":"2013-03-29T11:01:52+08:00"},{"unit":"台北市政府環境保護局","title":"公廁坐落：臺北市大同區公所","dep_content":"座數：4，特優級：3，優等級：1，普通級：0，加強級：0，無障礙設施","address":"臺北市大同區昌吉街57號4樓","lng":"121.515458","lat":"25.066028","modifydate":"2013-03-27T15:17:02+08:00"},{"unit":"台北市政府環境保護局","title":"公廁坐落：臺北市大同區戶政事務所","dep_content":"座數：2，特優級：2，優等級：0，普通級：0，加強級：0，無障礙設施","address":"臺北市大同區昌吉街57號3樓","lng":"121.515458","lat":"25.066028","modifydate":"2013-03-29T10:38:47+08:00"},{"unit":"台北市政府環境保護局","title":"公廁坐落：臺北市立圖書館大同分館","dep_content":"座數：4，特優級：2，優等級：2，普通級：0，加強級：0，無障礙設施","address":"臺北市大同區重慶北路三段318號","lng":"121.513555","lat":"25.074304","modifydate":"2013-03-27T15:14:20+08:00"},{"unit":"台北市政府環境保護局","title":"公廁坐落：臺北市立圖書館延平分館","dep_content":"座數：6，特優級：2，優等級：4，普通級：0，加強級：0，無障礙設施","address":"臺北市大同區保安街47號","lng":"121.512231","lat":"25.059162","modifydate":"2013-03-27T15:16:20+08:00"},{"unit":"台北市政府環境保護局","title":"公廁坐落：臺北市立圖書館建成分館","dep_content":"座數：2，特優級：1，優等級：1，普通級：0，加強級：0，無障礙設施","address":"臺北市大同區民生西路198號4樓","lng":"121.515851","lat":"25.056947","modifydate":"2013-03-25T09:18:31+08:00"},{"unit":"台北市政府環境保護局","title":"公廁坐落：臺北市立圖書館蘭州閱覽室","dep_content":"座數：2，特優級：2，優等級：0，普通級：0，加強級：0","address":"臺北市大同區昌吉街57號4樓","lng":"121.515458","lat":"25.066028","modifydate":"2013-03-29T10:29:35+08:00"},{"unit":"台北市政府環境保護局","title":"公廁坐落：臺北市稅捐稽徵處大同分處","dep_content":"座數：2，特優級：1，優等級：1，普通級：0，加強級：0，無障礙設施","address":"臺北市大同區昌吉街57號3樓","lng":"121.515458","lat":"25.066028","modifydate":"2013-03-29T10:39:53+08:00"},{"unit":"台北市政府環境保護局","title":"公廁坐落：雙連派出所","dep_content":"座數：1，特優級：0，優等級：1，普通級：0，加強級：0","address":"臺北市大同區長安西路198號","lng":"121.515248","lat":"25.051527","modifydate":"2013-09-23T17:11:04+08:00"},{"unit":"台北市政府環境保護局","title":"公廁坐落：三德觀光大飯店","dep_content":"座數：4，特優級：4，優等級：0，普通級：0，加強級：0","address":"臺北市大同區承德路三段49號","lng":"121.518578","lat":"25.064865","modifydate":"2013-05-27T16:41:58+08:00"},{"unit":"台北市政府環境保護局","title":"公廁坐落：丹堤咖啡重慶酒泉店","dep_content":"座數：1，特優級：1，優等級：0，普通級：0，加強級：0","address":"臺北市大同區重慶北路三段258號","lng":"121.513531","lat":"25.071878","modifydate":"2013-03-06T08:56:42+08:00"},{"unit":"台北市政府環境保護局","title":"公廁坐落：台北圓環","dep_content":"座數：3，特優級：1，優等級：2，普通級：0，加強級：0，無障礙設施","address":"臺北市大同區南京西路284之1號","lng":"121.5145","lat":"25.0539","modifydate":"2013-05-13T17:39:28+08:00"},{"unit":"台北市政府環境保護局","title":"公廁坐落：甲天下(長安西路店)　　　","dep_content":"座數：6，特優級：6，優等級：0，普通級：0，加強級：0","address":"臺北市大同區長安西路287號","lng":"121.509506","lat":"25.052128","modifydate":"2013-04-01T16:25:14+08:00"},{"unit":"台北市政府環境保護局","title":"公廁坐落：吉野家重北分公司","dep_content":"座數：1，特優級：0，優等級：1，普通級：0，加強級：0","address":"臺北市大同區重慶北路三段259號","lng":"121.514021","lat":"25.071627","modifydate":"2014-05-02T00:00:00+08:00"},{"unit":"台北市政府環境保護局","title":"公廁坐落：肯德基承德分公司","dep_content":"座數：1，特優級：0，優等級：1，普通級：0，加強級：0","address":"臺北市大同區承德路一段38號1樓,臺北市大同區長安西路142號,144號1樓","lng":"121.516702","lat":"25.050888","modifydate":"2013-04-01T16:28:09+08:00"},{"unit":"台北市政府環境保護局","title":"公廁坐落：拿坡里民生店","dep_content":"座數：1，特優級：0，優等級：1，普通級：0，加強級：0","address":"臺北市大同區民生西路83號","lng":"121.519582","lat":"25.057747","modifydate":"2014-04-14T16:20:31+08:00"},{"unit":"台北市政府環境保護局","title":"公廁坐落：馬來亞餐廳","dep_content":"座數：2，特優級：2，優等級：0，普通級：0，加強級：0","address":"臺北市大同區長安西路287之2號","lng":"121.509683","lat":"25.052181","modifydate":"2013-04-01T16:25:33+08:00"},{"unit":"台北市政府環境保護局","title":"公廁坐落：統一星巴克南西門市","dep_content":"座數：1，特優級：0，優等級：1，普通級：0，加強級：0","address":"臺北市大同區南京西路27號1樓","lng":"121.520172","lat":"25.05286","modifydate":"2013-04-01T16:27:11+08:00"},{"unit":"台北市政府環境保護局","title":"公廁坐落：麥當勞台北民生3分公司","dep_content":"座數：1，特優級：0，優等級：1，普通級：0，加強級：0","address":"臺北市大同區民生西路55號","lng":"121.520362","lat":"25.057738","modifydate":"2014-05-02T00:00:00+08:00"},{"unit":"台北市政府環境保護局","title":"公廁坐落：麥當勞台北承德分公司","dep_content":"座數：1，特優級：0，優等級：1，普通級：0，加強級：0","address":"臺北市大同區承德路一段34號,36號1樓及32號2樓之1","lng":"121.516675","lat":"25.050797","modifydate":"2013-04-01T16:27:23+08:00"},{"unit":"台北市政府環境保護局","title":"公廁坐落：麥當勞重慶北路2分公司","dep_content":"座數：1，特優級：0，優等級：1，普通級：0，加強級：0","address":"臺北市大同區重慶北路三段255號","lng":"121.514025","lat":"25.071564","modifydate":"2014-05-02T00:00:00+08:00"},{"unit":"台北市政府環境保護局","title":"公廁坐落：摩斯漢堡長安分公司","dep_content":"座數：1，特優級：0，優等級：1，普通級：0，加強級：0","address":"臺北市大同區長安西路219號1樓","lng":"121.512504","lat":"25.052046","modifydate":"2013-04-01T16:37:34+08:00"},{"unit":"台北市政府環境保護局","title":"公廁坐落：摩斯漢堡重慶店","dep_content":"座數：1，特優級：0，優等級：1，普通級：0，加強級：0","address":"臺北市大同區重慶北路三段271號","lng":"121.514089","lat":"25.072597","modifydate":"2013-03-06T08:55:58+08:00"},{"unit":"台北市政府環境保護局","title":"公廁坐落：摩斯漢堡雙連店","dep_content":"座數：1，特優級：0，優等級：1，普通級：0，加強級：0","address":"臺北市大同區民生西路77號","lng":"121.519732","lat":"25.058019","modifydate":"2014-04-14T16:20:08+08:00"},{"unit":"台北市政府環境保護局","title":"公廁坐落：朝代大戲院(Ａ、Ｂ廳)　　　　　","dep_content":"座數：2，特優級：2，優等級：0，普通級：0，加強級：0","address":"臺北市大同區民權西路136號4樓","lng":"121.516486","lat":"25.06273","modifydate":"2014-03-13T15:38:24+08:00"},{"unit":"台北市政府環境保護局","title":"公廁坐落：臺北京站威秀影城","dep_content":"座數：6，特優級：6，優等級：0，普通級：0，加強級：0，無障礙設施","address":"臺北市大同區市民大道一段209號5樓","lng":"121.518569","lat":"25.048786","modifydate":"2014-04-29T13:59:36+08:00"},{"unit":"台北市政府環境保護局","title":"公廁坐落：大同4號","dep_content":"座數：1，特優級：0，優等級：1，普通級：0，加強級：0","address":"臺北市大同區南京西路282巷6號旁","lng":"121.514684","lat":"25.053337","modifydate":"2013-03-06T16:53:14+08:00"},{"unit":"台北市政府環境保護局","title":"公廁坐落：大同5號","dep_content":"座數：1，特優級：0，優等級：1，普通級：0，加強級：0，無障礙設施","address":"臺北市大同區哈密街59巷18弄22號旁","lng":"121.515204","lat":"25.074384","modifydate":"2013-09-25T15:37:06+08:00"},{"unit":"台北市政府環境保護局","title":"公廁坐落：大同8號","dep_content":"座數：1，特優級：0，優等級：1，普通級：0，加強級：0，無障礙設施","address":"臺北市大同區大龍街240號之10旁","lng":"121.515838","lat":"25.069915","modifydate":"2013-03-06T16:55:19+08:00"},{"unit":"台北市政府環境保護局","title":"公廁坐落：大同9號","dep_content":"座數：1，特優級：0，優等級：1，普通級：0，加強級：0，無障礙設施","address":"臺北市大同區重慶北路三段236巷20-1號旁","lng":"121.512788","lat":"25.070473","modifydate":"2013-03-06T16:55:51+08:00"},{"unit":"台北市政府環境保護局","title":"公廁坐落：臺北市立聯合醫院大同門診","dep_content":"座數：2，特優級：2，優等級：0，普通級：0，加強級：0，無障礙設施","address":"臺北市大同區昌吉街52號","lng":"121.516493","lat":"25.065761","modifydate":"2014-04-22T10:08:11+08:00"},{"unit":"台北市政府環境保護局","title":"公廁坐落：臺北市立聯合醫院中興院區","dep_content":"座數：18，特優級：4，優等級：14，普通級：0，加強級：0，無障礙設施","address":"臺北市大同區鄭州路145號","lng":"121.50919","lat":"25.050911","modifydate":"2013-03-08T11:16:19+08:00"},{"unit":"台北市政府環境保護局","title":"公廁坐落：大安森林公園","dep_content":"座數：12，特優級：0，優等級：12，普通級：0，加強級：0，無障礙設施","address":"臺北市大安區新生南路、和平東路、信義路、建國南路","lng":"121.535241","lat":"25.027752","modifydate":"2013-03-25T17:54:10+08:00"},{"unit":"台北市政府環境保護局","title":"公廁坐落：永康公園","dep_content":"座數：1，特優級：0，優等級：1，普通級：0，加強級：0，無障礙設施","address":"臺北市大安區永康街8號","lng":"121.529745","lat":"25.032032","modifydate":"2013-03-25T17:39:02+08:00"},{"unit":"台北市政府環境保護局","title":"公廁坐落：嘉興公園","dep_content":"座數：0，特優級：0，優等級：0，普通級：0，加強級：0，無障礙設施","address":"臺北市大安區樂業街與嘉興街口","lng":"121.55193","lat":"25.021637","modifydate":"2013-03-25T17:45:20+08:00"},{"unit":"台北市政府環境保護局","title":"公廁坐落：福州山公園66號","dep_content":"座數：1，特優級：0，優等級：1，普通級：0，加強級：0","address":"臺北市台北市大安區臥龍街195巷口 ","lng":"121.558392","lat":"25.017407","modifydate":"2014-01-20T08:55:22+08:00"},{"unit":"台北市政府環境保護局","title":"公廁坐落：中油金山南路站","dep_content":"座數：1，特優級：0，優等級：1，普通級：0，加強級：0","address":"臺北市大安區金山南路二段77號","lng":"121.526942","lat":"25.031564","modifydate":"2013-03-25T16:17:49+08:00"},{"unit":"台北市政府環境保護局","title":"公廁坐落：中油信義路站","dep_content":"座數：1，特優級：0，優等級：1，普通級：0，加強級：0，無障礙設施","address":"臺北市大安區信義路四段374號","lng":"121.555473","lat":"25.032923","modifydate":"2013-12-11T11:16:41+08:00"},{"unit":"台北市政府環境保護局","title":"公廁坐落：中油基隆路站","dep_content":"座數：1，特優級：0，優等級：1，普通級：0，加強級：0","address":"臺北市大安區基隆路二段162號","lng":"121.555865","lat":"25.027606","modifydate":"2013-03-25T16:08:15+08:00"},{"unit":"台北市政府環境保護局","title":"公廁坐落：中油富陽街站","dep_content":"座數：1，特優級：0，優等級：1，普通級：0，加強級：0，無障礙設施","address":"臺北市大安區富陽街133號","lng":"121.55693","lat":"25.019026","modifydate":"2013-03-25T16:15:32+08:00"},{"unit":"台北市政府環境保護局","title":"公廁坐落：中油新生南路站","dep_content":"座數：1，特優級：0，優等級：1，普通級：0，加強級：0","address":"臺北市大安區仁愛路三段1號","lng":"121.533103","lat":"25.038425","modifydate":"2013-03-25T16:12:06+08:00"},{"unit":"台北市政府環境保護局","title":"公廁坐落：中油龍安站","dep_content":"座數：1，特優級：0，優等級：1，普通級：0，加強級：0","address":"臺北市大安區和平東路二段2號","lng":"121.535306","lat":"25.025812","modifydate":"2013-11-27T09:10:48+08:00"},{"unit":"台北市政府環境保護局","title":"公廁坐落：勝利加油站","dep_content":"座數：1，特優級：0，優等級：1，普通級：0，加強級：0，無障礙設施","address":"臺北市大安區建國南路二段75之1號","lng":"121.542709","lat":"25.026158","modifydate":"2013-08-19T17:25:50+08:00"},{"unit":"台北市政府環境保護局","title":"公廁坐落：陽光加油站","dep_content":"座數：1，特優級：0，優等級：0，普通級：1，加強級：0，無障礙設施","address":"臺北市大安區建國南一段57之1號","lng":"121.539516","lat":"25.04727","modifydate":"2013-03-06T08:34:12+08:00"},{"unit":"台北市政府環境保護局","title":"公廁坐落：公有安東市場","dep_content":"座數：1，特優級：0，優等級：1，普通級：0，加強級：0，無障礙設施","address":"臺北市大安區瑞安街75號","lng":"121.541146","lat":"25.028279","modifydate":"2014-01-15T17:52:59+08:00"},{"unit":"台北市政府環境保護局","title":"公廁坐落：公有成功市場","dep_content":"座數：1，特優級：0，優等級：1，普通級：0，加強級：0，無障礙設施","address":"臺北市大安區四維路192巷內","lng":"121.547977","lat":"25.027066","modifydate":"2014-01-15T17:53:59+08:00"},{"unit":"台北市政府環境保護局","title":"公廁坐落：公有信義市場","dep_content":"座數：1，特優級：0，優等級：1，普通級：0，加強級：0，無障礙設施","address":"臺北市大安區信義路三段107號","lng":"121.539044","lat":"25.034026","modifydate":"2014-01-15T17:52:31+08:00"},{"unit":"台北市政府環境保護局","title":"公廁坐落：公有信維市場","dep_content":"座數：2，特優級：0，優等級：2，普通級：0，加強級：0，無障礙設施","address":"臺北市大安區信義路四段60之1號","lng":"121.545767","lat":"25.033137","modifydate":"2014-01-15T17:50:25+08:00"},{"unit":"台北市政府環境保護局","title":"公廁坐落：公有新生市場","dep_content":"座數：1，特優級：0，優等級：1，普通級：0，加強級：0","address":"臺北市大安區新生南路一段134之1號","lng":"121.532503","lat":"25.036616","modifydate":"2014-01-15T17:52:37+08:00"},{"unit":"台北市政府環境保護局","title":"公廁坐落：公有錦安市場","dep_content":"座數：1，特優級：0，優等級：1，普通級：0，加強級：0","address":"臺北市大安區永康街58號","lng":"121.529604","lat":"25.028633","modifydate":"2014-01-15T17:52:25+08:00"},{"unit":"台北市政府環境保護局","title":"公廁坐落：大安高工地下停車場","dep_content":"座數：1，特優級：0，優等級：1，普通級：0，加強級：0","address":"臺北市大安區信義路三段166巷6弄12號地下","lng":"121.54071","lat":"25.032794","modifydate":"2013-03-04T17:07:30+08:00"},{"unit":"台北市政府環境保護局","title":"公廁坐落：大安森林公園地下停車場","dep_content":"座數：1，特優級：0，優等級：1，普通級：0，加強級：0，無障礙設施","address":"臺北市大安區建國南路二段2號地下一樓","lng":"121.537892","lat":"25.028771","modifydate":"2013-03-04T11:56:26+08:00"},{"unit":"台北市政府環境保護局","title":"公廁坐落：金華公園地下停車場","dep_content":"座數：1，特優級：0，優等級：1，普通級：0，加強級：0，無障礙設施","address":"臺北市大安區金華街254巷1號地下","lng":"121.531765","lat":"25.029471","modifydate":"2013-03-04T17:02:44+08:00"},{"unit":"台北市政府環境保護局","title":"公廁坐落：附中公園地下停車場","dep_content":"座數：1，特優級：0，優等級：1，普通級：0，加強級：0","address":"臺北市大安區復興南路一段340巷11號地下","lng":"121.54301","lat":"25.036041","modifydate":"2012-10-22T16:22:25+08:00"},{"unit":"台北市政府環境保護局","title":"公廁坐落：建國計程車服務站","dep_content":"座數：1，特優級：0，優等級：0，普通級：1，加強級：0，無障礙設施","address":"臺北市大安區建國南路一段三十四號","lng":"121.536225","lat":"25.044161","modifydate":"2013-03-04T11:48:53+08:00"},{"unit":"台北市政府環境保護局","title":"公廁坐落：建國橋下仁愛濟南段停車場(假日玉市)","dep_content":"座數：1，特優級：0，優等級：1，普通級：0，加強級：0，無障礙設施","address":"臺北市大安區建國橋下仁愛路-濟南路間","lng":"121.537761","lat":"25.039554","modifydate":"2013-03-04T17:23:29+08:00"},{"unit":"台北市政府環境保護局","title":"公廁坐落：捷運大安站","dep_content":"座數：2，特優級：2，優等級：0，普通級：0，加強級：0，無障礙設施","address":"臺北市大安區信義路四段2號","lng":"121.543828","lat":"25.033086","modifydate":"2013-02-19T17:14:09+08:00"},{"unit":"台北市政府環境保護局","title":"公廁坐落：捷運大安森林公園站","dep_content":"座數：6，特優級：6，優等級：0，普通級：0，加強級：0，無障礙設施","address":"臺北市大安區信義路3段100號B1","lng":"121.5337","lat":"25.033418","modifydate":"2013-12-17T15:31:17+08:00"},{"unit":"台北市政府環境保護局","title":"公廁坐落：捷運六張犁站","dep_content":"座數：2，特優級：2，優等級：0，普通級：0，加強級：0，無障礙設施","address":"臺北市大安區和平東路三段168號","lng":"121.553126","lat":"25.02379","modifydate":"2013-02-19T17:15:20+08:00"},{"unit":"台北市政府環境保護局","title":"公廁坐落：捷運忠孝復興站","dep_content":"座數：5，特優級：5，優等級：0，普通級：0，加強級：0，無障礙設施","address":"臺北市大安區忠孝東路四段47號","lng":"121.542995","lat":"25.041483","modifydate":"2014-04-16T10:56:32+08:00"},{"unit":"台北市政府環境保護局","title":"公廁坐落：捷運忠孝敦化站","dep_content":"座數：3，特優級：3，優等級：0，普通級：0，加強級：0，無障礙設施","address":"臺北市大安區忠孝東路四段182號","lng":"121.551744","lat":"25.041269","modifydate":"2014-04-16T10:54:56+08:00"},{"unit":"台北市政府環境保護局","title":"公廁坐落：捷運忠孝新生站","dep_content":"座數：2，特優級：2，優等級：0，普通級：0，加強級：0，無障礙設施","address":"臺北市大安區新生南路一段67號","lng":"121.533107","lat":"25.042023","modifydate":"2013-03-04T11:40:03+08:00"},{"unit":"台北市政府環境保護局","title":"公廁坐落：捷運忠孝新生站(新蘆線)","dep_content":"座數：3，特優級：3，優等級：0，普通級：0，加強級：0，無障礙設施","address":"臺北市大安區新生南路一段67號B1","lng":"121.533107","lat":"25.042023","modifydate":"2013-03-21T16:33:47+08:00"},{"unit":"台北市政府環境保護局","title":"公廁坐落：捷運東門站","dep_content":"座數：4，特優級：4，優等級：0，普通級：0，加強級：0，無障礙設施","address":"臺北市大安區信義路二段166號","lng":"121.5288","lat":"25.0336","modifydate":"2013-04-18T10:58:27+08:00"},{"unit":"台北市政府環境保護局","title":"公廁坐落：捷運信義大安站","dep_content":"座數：5，特優級：5，優等級：0，普通級：0，加強級：0，無障礙設施","address":"臺北市信義路四段2號","lng":"121.543828","lat":"25.033086","modifydate":"2014-02-19T11:33:58+08:00"},{"unit":"台北市政府環境保護局","title":"公廁坐落：捷運信義安和站","dep_content":"座數：3，特優級：3，優等級：0，普通級：0，加強級：0，無障礙設施","address":"臺北市大安區信義路4段212之1號B1","lng":"121.551853","lat":"25.033185","modifydate":"2014-02-19T08:45:49+08:00"},{"unit":"台北市政府環境保護局","title":"公廁坐落：捷運科技大樓站","dep_content":"座數：2，特優級：2，優等級：0，普通級：0，加強級：0，無障礙設施","address":"臺北市大安區復興南路二段235號","lng":"121.543645","lat":"25.026136","modifydate":"2013-02-19T17:14:51+08:00"},{"unit":"台北市政府環境保護局","title":"公廁坐落：捷運麟光站","dep_content":"座數：2，特優級：2，優等級：0，普通級：0，加強級：0，無障礙設施","address":"臺北市大安區和平東路三段410號","lng":"121.558729","lat":"25.018481","modifydate":"2013-02-19T17:15:58+08:00"},{"unit":"台北市政府環境保護局","title":"公廁坐落：僑安地下停車場","dep_content":"座數：2，特優級：0，優等級：2，普通級：0，加強級：0","address":"臺北市大安區忠孝東路四段306號B1","lng":"121.556814","lat":"25.041287","modifydate":"2014-04-18T08:38:41+08:00"},{"unit":"台北市政府環境保護局","title":"公廁坐落：龍門國中地下停車場","dep_content":"座數：8，特優級：6，優等級：2，普通級：0，加強級：0，無障礙設施","address":"臺北市大安區建國南路二段269號B1","lng":"121.53804","lat":"25.024266","modifydate":"2013-03-04T17:28:58+08:00"},{"unit":"台北市政府環境保護局","title":"公廁坐落：太平洋崇光百貨(忠孝店)　　　　　","dep_content":"座數：23，特優級：23，優等級：0，普通級：0，加強級：0，無障礙設施","address":"臺北市大安區忠孝東路四段45號","lng":"121.544838","lat":"25.041758","modifydate":"2013-03-26T11:14:08+08:00"},{"unit":"台北市政府環境保護局","title":"公廁坐落：太平洋崇光百貨(復興店)　　　　　","dep_content":"座數：24，特優級：14，優等級：8，普通級：2，加強級：0，無障礙設施","address":"臺北市大安區忠孝東路三段300號","lng":"121.543239","lat":"25.041476","modifydate":"2013-03-26T16:40:45+08:00"},{"unit":"台北市政府環境保護局","title":"公廁坐落：太平洋崇光百貨敦化分館","dep_content":"座數：12，特優級：12，優等級：0，普通級：0，加強級：0，無障礙設施","address":"臺北市大安區敦化南路一段246號","lng":"121.5484","lat":"25.040184","modifydate":"2012-09-14T15:23:12+08:00"},{"unit":"台北市政府環境保護局","title":"公廁坐落：明曜百貨","dep_content":"座數：16，特優級：16，優等級：0，普通級：0，加強級：0，無障礙設施","address":"臺北市大安區忠孝東路四段200號","lng":"121.551962","lat":"25.041348","modifydate":"2013-07-23T09:06:20+08:00"},{"unit":"台北市政府環境保護局","title":"公廁坐落：東區地下街","dep_content":"座數：6，特優級：3，優等級：3，普通級：0，加強級：0，無障礙設施","address":"臺北市大安區大安路1段77號地下街(位於忠孝復興站至忠孝敦化站之間)","lng":"121.5462","lat":"25.0418","modifydate":"2013-04-09T17:35:47+08:00"},{"unit":"台北市政府環境保護局","title":"公廁坐落：統一超商臺北市仕吉店","dep_content":"座數：1，特優級：0，優等級：0，普通級：1，加強級：0","address":"臺北市大安區忠孝東路4段223巷42號","lng":"121.553113","lat":"25.043525","modifydate":"2014-04-16T09:38:59+08:00"},{"unit":"台北市政府環境保護局","title":"公廁坐落：統一超商臺北市佑安店","dep_content":"座數：1，特優級：0，優等級：0，普通級：1，加強級：0","address":"臺北市大安區忠孝東路三段217巷1弄2號","lng":"121.539648","lat":"25.042417","modifydate":"2014-04-16T09:06:15+08:00"},{"unit":"台北市政府環境保護局","title":"公廁坐落：統一超商臺北市建忠店","dep_content":"座數：1，特優級：0，優等級：1，普通級：0，加強級：0","address":"臺北市大安區忠孝東路三段249號","lng":"121.541493","lat":"25.041771","modifydate":"2014-04-16T09:10:13+08:00"},{"unit":"台北市政府環境保護局","title":"公廁坐落：統一超商臺北市統家店","dep_content":"座數：1，特優級：0，優等級：1，普通級：0，加強級：0","address":"臺北市大安區忠孝東路4段216巷27弄1號1樓","lng":"121.553341","lat":"25.039975","modifydate":"2014-04-16T09:14:38+08:00"},{"unit":"台北市政府環境保護局","title":"公廁坐落：統一超商臺北市溫州店","dep_content":"座數：1，特優級：0，優等級：1，普通級：0，加強級：0","address":"臺北市大安區羅斯福路3段245號","lng":"121.529997","lat":"25.019341","modifydate":"2014-04-07T15:57:01+08:00"},{"unit":"台北市政府環境保護局","title":"公廁坐落：統一超商臺北市黎元店","dep_content":"座數：1，特優級：0，優等級：1，普通級：0，加強級：0","address":"臺北市大安區臥龍街188巷1號","lng":"121.550932","lat":"25.018282","modifydate":"2014-04-02T10:15:41+08:00"},{"unit":"台北市政府環境保護局","title":"公廁坐落：統一超商臺北市麟光店","dep_content":"座數：1，特優級：0，優等級：1，普通級：0，加強級：0","address":"臺北市大安區臥龍街252號及252-1號","lng":"121.556994","lat":"25.018593","modifydate":"2014-04-02T10:18:58+08:00"},{"unit":"台北市政府環境保護局","title":"公廁坐落：微風忠孝","dep_content":"座數：2，特優級：2，優等級：0，普通級：0，加強級：0","address":"臺北市大安區忠孝東路四段219號1F","lng":"121.552391","lat":"25.042157","modifydate":"2014-03-21T15:08:13+08:00"},{"unit":"台北市政府環境保護局","title":"公廁坐落：遠企購物中心","dep_content":"座數：14，特優級：14，優等級：0，普通級：0，加強級：0，無障礙設施","address":"臺北市大安區敦化南路二段203號","lng":"121.549269","lat":"25.02636","modifydate":"2014-03-21T15:52:04+08:00"},{"unit":"台北市政府環境保護局","title":"公廁坐落：大安車層景福宮","dep_content":"座數：1，特優級：0，優等級：1，普通級：0，加強級：0","address":"臺北市大安區延吉街77號","lng":"121.553975","lat":"25.044175","modifydate":"2013-04-16T15:23:44+08:00"},{"unit":"台北市政府環境保護局","title":"公廁坐落：臺北市大安運動中心","dep_content":"座數：10，特優級：10，優等級：0，普通級：0，加強級：0，無障礙設施","address":"臺北市大安區辛亥路三段55號","lng":"121.545499","lat":"25.02065","modifydate":"2013-05-29T10:39:38+08:00"},{"unit":"台北市政府環境保護局","title":"公廁坐落：中國文化大學推廣教育部","dep_content":"座數：13，特優級：13，優等級：0，普通級：0，加強級：0，無障礙設施","address":"臺北市大安區建國南路二段231號","lng":"121.538013","lat":"25.025917","modifydate":"2013-03-08T14:17:27+08:00"},{"unit":"台北市政府環境保護局","title":"公廁坐落：國立臺北科技大學","dep_content":"座數：84，特優級：0，優等級：78，普通級：6，加強級：0，無障礙設施","address":"臺北市大安區忠孝東路三段1號","lng":"121.535411","lat":"25.042151","modifydate":"2013-03-08T10:06:03+08:00"},{"unit":"台北市政府環境保護局","title":"公廁坐落：國立臺北教育大學","dep_content":"座數：50，特優級：20，優等級：30，普通級：0，加強級：0，無障礙設施","address":"臺北市大安區和平東路二段134號","lng":"121.544503","lat":"25.024492","modifydate":"2014-02-26T08:45:47+08:00"},{"unit":"台北市政府環境保護局","title":"公廁坐落：國立臺北教育大學附設實驗國民小學","dep_content":"座數：18，特優級：8，優等級：10，普通級：0，加強級：0，無障礙設施","address":"臺北市大安區和平東路二段94號","lng":"121.540419","lat":"25.025048","modifydate":"2014-04-18T10:03:13+08:00"},{"unit":"台北市政府環境保護局","title":"公廁坐落：國立臺灣大學","dep_content":"座數：218，特優級：0，優等級：215，普通級：3，加強級：0，無障礙設施","address":"臺北市大安區羅斯福路四段1號","lng":"121.529989","lat":"25.013673","modifydate":"2014-02-26T09:37:38+08:00"},{"unit":"台北市政府環境保護局","title":"公廁坐落：國立臺灣科技大學","dep_content":"座數：128，特優級：1，優等級：126，普通級：1，加強級：0，無障礙設施","address":"臺北市大安區基隆路四段43號","lng":"121.541576","lat":"25.013255","modifydate":"2014-04-10T09:18:42+08:00"},{"unit":"台北市政府環境保護局","title":"公廁坐落：國立臺灣師範大學","dep_content":"座數：118，特優級：8，優等級：110，普通級：0，加強級：0，無障礙設施","address":"臺北市大安區和平東路一段162號","lng":"121.52705","lat":"25.026273","modifydate":"2014-03-27T14:52:06+08:00"},{"unit":"台北市政府環境保護局","title":"公廁坐落：國立臺灣師範大學附屬中學","dep_content":"座數：34，特優級：0，優等級：32，普通級：2，加強級：0，無障礙設施","address":"臺北市大安區信義路三段143號","lng":"121.540607","lat":"25.033797","modifydate":"2013-06-05T15:13:36+08:00"},{"unit":"台北市政府環境保護局","title":"公廁坐落：淡江大學城區部","dep_content":"座數：18，特優級：0，優等級：18，普通級：0，加強級：0，無障礙設施","address":"臺北市大安區金華街199巷5號","lng":"121.527909","lat":"25.031011","modifydate":"2013-01-21T17:02:23+08:00"},{"unit":"台北市政府環境保護局","title":"公廁坐落：臺北市大安區大安國民小學","dep_content":"座數：22，特優級：7，優等級：15，普通級：0，加強級：0，無障礙設施","address":"臺北市大安區臥龍街129號","lng":"121.549472","lat":"25.01977","modifydate":"2013-05-06T17:05:33+08:00"},{"unit":"台北市政府環境保護局","title":"公廁坐落：臺北市大安區仁愛國民小學","dep_content":"座數：27，特優級：1，優等級：26，普通級：0，加強級：0，無障礙設施","address":"臺北市大安區安和路一段60號","lng":"121.552025","lat":"25.036358","modifydate":"2013-05-03T15:39:23+08:00"},{"unit":"台北市政府環境保護局","title":"公廁坐落：臺北市大安區公館國民小學","dep_content":"座數：10，特優級：1，優等級：9，普通級：0，加強級：0，無障礙設施","address":"臺北市大安區基隆路四段41巷68弄2號","lng":"121.543298","lat":"25.012839","modifydate":"2013-05-06T16:54:31+08:00"},{"unit":"台北市政府環境保護局","title":"公廁坐落：臺北市大安區古亭國民小學","dep_content":"座數：28，特優級：10，優等級：18，普通級：0，加強級：0，無障礙設施","address":"臺北市大安區羅斯福路三段201號","lng":"121.528882","lat":"25.020506","modifydate":"2014-04-08T17:37:46+08:00"},{"unit":"台北市政府環境保護局","title":"公廁坐落：臺北市大安區幸安國民小學","dep_content":"座數：28，特優級：0，優等級：28，普通級：0，加強級：0，無障礙設施","address":"臺北市大安區仁愛路三段22號","lng":"121.534866","lat":"25.03758","modifydate":"2013-05-06T16:39:21+08:00"},{"unit":"台北市政府環境保護局","title":"公廁坐落：臺北市大安區金華國民小學","dep_content":"座數：28，特優級：4，優等級：24，普通級：0，加強級：0，無障礙設施","address":"臺北市大安區愛國東路79巷11號","lng":"121.528283","lat":"25.032073","modifydate":"2014-02-26T15:50:38+08:00"},{"unit":"台北市政府環境保護局","title":"公廁坐落：臺北市大安區建安國民小學","dep_content":"座數：24，特優級：4，優等級：20，普通級：0，加強級：0，無障礙設施","address":"臺北市大安區大安路二段99號","lng":"121.546224","lat":"25.029358","modifydate":"2013-05-06T16:41:03+08:00"},{"unit":"台北市政府環境保護局","title":"公廁坐落：臺北市大安區新生國民小學","dep_content":"座數：36，特優級：18，優等級：18，普通級：0，加強級：0，無障礙設施","address":"臺北市大安區新生南路二段36號","lng":"121.53362","lat":"25.02982","modifydate":"2014-03-14T17:29:32+08:00"},{"unit":"台北市政府環境保護局","title":"公廁坐落：臺北市大安區銘傳國民小學","dep_content":"座數：21，特優級：21，優等級：0，普通級：0，加強級：0，無障礙設施","address":"臺北市大安區羅斯福路四段21號","lng":"121.535395","lat":"25.014044","modifydate":"2013-10-29T10:49:34+08:00"},{"unit":"台北市政府環境保護局","title":"公廁坐落：臺北市大安區龍安國民小學","dep_content":"座數：21，特優級：2，優等級：19，普通級：0，加強級：0，無障礙設施","address":"臺北市大安區新生南路三段33號","lng":"121.534895","lat":"25.023466","modifydate":"2013-05-13T14:24:08+08:00"},{"unit":"台北市政府環境保護局","title":"公廁坐落：臺北市立大安高級工業職業學校","dep_content":"座數：29，特優級：3，優等級：26，普通級：0，加強級：0，無障礙設施","address":"臺北市大安區復興南路二段52號","lng":"121.543234","lat":"25.032016","modifydate":"2013-06-05T10:51:11+08:00"},{"unit":"台北市政府環境保護局","title":"公廁坐落：臺北市立大安國民中學","dep_content":"座數：26，特優級：0，優等級：26，普通級：0，加強級：0，無障礙設施","address":"臺北市大安區大安路二段63號","lng":"121.54615","lat":"25.030736","modifydate":"2014-03-17T16:38:22+08:00"},{"unit":"台北市政府環境保護局","title":"公廁坐落：臺北市立仁愛國民中學","dep_content":"座數：28，特優級：0，優等級：28，普通級：0，加強級：0，無障礙設施","address":"臺北市大安區仁愛路四段130號","lng":"121.550875","lat":"25.037502","modifydate":"2014-03-17T14:19:11+08:00"},{"unit":"台北市政府環境保護局","title":"公廁坐落：臺北市立民族國民中學","dep_content":"座數：10，特優級：0，優等級：10，普通級：0，加強級：0，無障礙設施","address":"臺北市大安區羅斯福路四段113巷13號","lng":"121.537585","lat":"25.011038","modifydate":"2014-03-17T15:14:33+08:00"},{"unit":"台北市政府環境保護局","title":"公廁坐落：臺北市立和平高級中學","dep_content":"座數：24，特優級：8，優等級：16，普通級：0，加強級：0，無障礙設施","address":"臺北市大安區臥龍街100號","lng":"121.54878","lat":"25.019874","modifydate":"2014-03-24T16:08:25+08:00"},{"unit":"台北市政府環境保護局","title":"公廁坐落：臺北市立芳和國民中學","dep_content":"座數：17，特優級：4，優等級：13，普通級：0，加強級：0，無障礙設施","address":"臺北市大安區臥龍街170號","lng":"121.549751","lat":"25.019035","modifydate":"2014-03-17T14:22:05+08:00"},{"unit":"台北市政府環境保護局","title":"公廁坐落：臺北市立金華國民中學","dep_content":"座數：27，特優級：19，優等級：8，普通級：0，加強級：0，無障礙設施","address":"臺北市大安區新生南路二段32號","lng":"121.533069","lat":"25.031528","modifydate":"2014-03-17T15:12:40+08:00"},{"unit":"台北市政府環境保護局","title":"公廁坐落：臺北市立龍門國民中學","dep_content":"座數：28，特優級：28，優等級：0，普通級：0，加強級：0，無障礙設施","address":"臺北市大安區建國南路二段269號","lng":"121.53804","lat":"25.024266","modifydate":"2014-03-18T17:04:34+08:00"},{"unit":"台北市政府環境保護局","title":"公廁坐落：臺北市立懷生國民中學","dep_content":"座數：23，特優級：23，優等級：0，普通級：0，加強級：0，無障礙設施","address":"臺北市大安區忠孝東路三段248巷30號","lng":"121.541142","lat":"25.040452","modifydate":"2013-09-27T16:54:43+08:00"},{"unit":"台北市政府環境保護局","title":"公廁坐落：臺北市私立立人國際國民中小學","dep_content":"座數：12，特優級：0，優等級：12，普通級：0，加強級：0","address":"臺北市大安區安和路二段99號","lng":"121.551839","lat":"25.029744","modifydate":"2014-02-19T08:37:45+08:00"},{"unit":"台北市政府環境保護局","title":"公廁坐落：臺北市私立延平高級中學","dep_content":"座數：20，特優級：3，優等級：17，普通級：0，加強級：0，無障礙設施","address":"臺北市大安區建國南路一段275號","lng":"121.538525","lat":"25.036407","modifydate":"2013-06-05T14:17:21+08:00"},{"unit":"台北市政府環境保護局","title":"公廁坐落：臺北市私立東方高級工商職業學校","dep_content":"座數：11，特優級：0，優等級：1，普通級：10，加強級：0","address":"臺北市大安區信義路四段186巷8號","lng":"121.551384","lat":"25.03227","modifydate":"2013-12-11T11:01:17+08:00"},{"unit":"台北市政府環境保護局","title":"公廁坐落：臺北市私立金甌女子高級中學","dep_content":"座數：29，特優級：0，優等級：29，普通級：0，加強級：0，無障礙設施","address":"臺北市大安區杭州南路二段1號","lng":"121.524163","lat":"25.034672","modifydate":"2014-02-27T08:25:11+08:00"},{"unit":"台北市政府環境保護局","title":"公廁坐落：臺北市私立喬治高級工商職業學校","dep_content":"座數：12，特優級：0，優等級：8，普通級：4，加強級：0，無障礙設施","address":"臺北市大安區基隆路二段155、172號","lng":"121.554966","lat":"25.025714","modifydate":"2014-02-27T08:28:31+08:00"},{"unit":"台北市政府環境保護局","title":"公廁坐落：臺北市私立復興實驗高級中學","dep_content":"座數：40，特優級：8，優等級：32，普通級：0，加強級：0，無障礙設施","address":"臺北市大安區敦化南路一段262號","lng":"121.548402","lat":"25.039433","modifydate":"2013-03-14T12:31:49+08:00"},{"unit":"台北市政府環境保護局","title":"公廁坐落：臺北市私立新民國民小學","dep_content":"座數：16，特優級：16，優等級：0，普通級：0，加強級：0，無障礙設施","address":"臺北市大安區辛亥路一段113號","lng":"121.532115","lat":"25.022502","modifydate":"2013-05-03T15:33:31+08:00"},{"unit":"台北市政府環境保護局","title":"公廁坐落：臺北市開平餐飲學校","dep_content":"座數：8，特優級：0，優等級：8，普通級：0，加強級：0，無障礙設施","address":"臺北市大安區復興南路二段148巷24號","lng":"121.542009","lat":"25.028678","modifydate":"2013-06-05T14:39:54+08:00"},{"unit":"台北市政府環境保護局","title":"公廁坐落：大安分局","dep_content":"座數：2，特優級：1，優等級：1，普通級：0，加強級：0，無障礙設施","address":"臺北市大安區仁愛路三段2號","lng":"121.533057","lat":"25.037837","modifydate":"2013-03-29T11:05:33+08:00"},{"unit":"台北市政府環境保護局","title":"公廁坐落：大安地政事務所","dep_content":"座數：8，特優級：6，優等級：2，普通級：0，加強級：0","address":"臺北市大安區四維路198巷12號","lng":"121.546987","lat":"25.02661","modifydate":"2013-03-27T15:25:25+08:00"},{"unit":"台北市政府環境保護局","title":"公廁坐落：安和路派出所","dep_content":"座數：1，特優級：0，優等級：1，普通級：0，加強級：0","address":"臺北市大安區信義路四段216號","lng":"121.551868","lat":"25.033043","modifydate":"2013-03-29T11:06:07+08:00"},{"unit":"台北市政府環境保護局","title":"公廁坐落：和平東路派出所","dep_content":"座數：1，特優級：0，優等級：1，普通級：0，加強級：0","address":"臺北市大安區和平東路一段143號","lng":"121.530718","lat":"25.026534","modifydate":"2013-03-29T11:06:29+08:00"},{"unit":"台北市政府環境保護局","title":"公廁坐落：臥龍街派出所","dep_content":"座數：1，特優級：0，優等級：1，普通級：0，加強級：0","address":"臺北市大安區臥龍街185號","lng":"121.551744","lat":"25.01804","modifydate":"2013-03-29T11:06:55+08:00"},{"unit":"台北市政府環境保護局","title":"公廁坐落：財政部臺北國稅局大安分局","dep_content":"座數：6，特優級：0，優等級：6，普通級：0，加強級：0，無障礙設施","address":"臺北市大安區新生南路二段86號","lng":"121.534607","lat":"25.026441","modifydate":"2013-05-29T09:58:19+08:00"},{"unit":"台北市政府環境保護局","title":"公廁坐落：國家教育研究院","dep_content":"座數：22，特優級：22，優等級：0，普通級：0，加強級：0，無障礙設施","address":"臺北市大安區和平東路一段179號","lng":"121.532725","lat":"25.026633","modifydate":"2013-02-25T13:38:36+08:00"},{"unit":"台北市政府環境保護局","title":"公廁坐落：第二殯儀館","dep_content":"座數：21，特優級：0，優等級：20，普通級：1，加強級：0，無障礙設施","address":"臺北市大安區辛亥路三段330號","lng":"121.552118","lat":"25.014697","modifydate":"2014-04-01T17:11:19+08:00"},{"unit":"台北市政府環境保護局","title":"公廁坐落：敦化南路派出所","dep_content":"座數：1，特優級：0，優等級：1，普通級：0，加強級：0","address":"臺北市大安區敦化南路一段236巷26號","lng":"121.547007","lat":"25.040412","modifydate":"2013-02-25T10:21:46+08:00"},{"unit":"台北市政府環境保護局","title":"公廁坐落：新生南路派出所","dep_content":"座數：1，特優級：1，優等級：0，普通級：0，加強級：0","address":"臺北市大安區仁愛路三段18號","lng":"121.534156","lat":"25.037729","modifydate":"2013-03-29T17:38:27+08:00"},{"unit":"台北市政府環境保護局","title":"公廁坐落：瑞安街派出所","dep_content":"座數：1，特優級：0，優等級：1，普通級：0，加強級：0","address":"臺北市大安區瑞安街23巷17號","lng":"121.544985","lat":"25.03113","modifydate":"2013-03-29T11:07:41+08:00"},{"unit":"台北市政府環境保護局","title":"公廁坐落：臺北市大安區公所","dep_content":"座數：4，特優級：0，優等級：4，普通級：0，加強級：0，無障礙設施","address":"臺北市大安區新生南路二段86號","lng":"121.534607","lat":"25.026441","modifydate":"2013-03-27T15:21:54+08:00"},{"unit":"台北市政府環境保護局","title":"公廁坐落：臺北市大安區戶政事務所","dep_content":"座數：4，特優級：0，優等級：4，普通級：0，加強級：0","address":"臺北市大安區新生南路二段86號","lng":"121.534607","lat":"25.026441","modifydate":"2013-02-23T16:40:46+08:00"},{"unit":"台北市政府環境保護局","title":"公廁坐落：臺北市大安區健康服務中心","dep_content":"座數：4，特優級：4，優等級：0，普通級：0，加強級：0，無障礙設施","address":"臺北市大安區辛亥路三段15號2樓","lng":"121.543954","lat":"25.02146","modifydate":"2013-03-29T10:31:47+08:00"},{"unit":"台北市政府環境保護局","title":"公廁坐落：臺北市立圖書館","dep_content":"座數：22，特優級：0，優等級：20，普通級：2，加強級：0，無障礙設施","address":"臺北市大安區建國南路二段125號","lng":"121.538369","lat":"25.029152","modifydate":"2013-03-27T15:20:44+08:00"},{"unit":"台北市政府環境保護局","title":"公廁坐落：臺北市立圖書館大安分館","dep_content":"座數：4，特優級：0，優等級：4，普通級：0，加強級：0，無障礙設施","address":"臺北市大安區辛亥路三段223號4、5樓","lng":"121.550488","lat":"25.016161","modifydate":"2013-03-27T15:23:52+08:00"},{"unit":"台北市政府環境保護局","title":"公廁坐落：臺北市立圖書館成功閱覽室","dep_content":"座數：3，特優級：0，優等級：3，普通級：0，加強級：0，無障礙設施","address":"臺北市大安區和平東路二段311巷29號4樓","lng":"121.545211","lat":"25.025442","modifydate":"2013-03-05T18:15:58+08:00"},{"unit":"台北市政府環境保護局","title":"公廁坐落：臺北市立圖書館延吉閱覽室","dep_content":"座數：4，特優級：2，優等級：2，普通級：0，加強級：0，無障礙設施","address":"臺北市大安區延吉街236巷17號3-4樓","lng":"121.555021","lat":"25.036117","modifydate":"2013-08-13T17:22:36+08:00"},{"unit":"台北市政府環境保護局","title":"公廁坐落：臺北市立圖書館道藩分館","dep_content":"座數：2，特優級：2，優等級：0，普通級：0，加強級：0","address":"臺北市大安區辛亥路三段11號3樓","lng":"121.543808","lat":"25.021481","modifydate":"2013-03-27T15:17:29+08:00"},{"unit":"台北市政府環境保護局","title":"公廁坐落：臺北市稅捐稽徵處大安分處","dep_content":"座數：2，特優級：0，優等級：2，普通級：0，加強級：0","address":"臺北市大安區新生南路二段86號","lng":"121.534607","lat":"25.026441","modifydate":"2013-03-27T15:25:45+08:00"},{"unit":"台北市政府環境保護局","title":"公廁坐落：臺北高等行政法院","dep_content":"座數：4，特優級：1，優等級：3，普通級：0，加強級：0，無障礙設施","address":"臺北市大安區和平東路三段一巷一號","lng":"121.546896","lat":"25.025404","modifydate":"2013-03-29T10:36:11+08:00"},{"unit":"台北市政府環境保護局","title":"公廁坐落：龍安民眾閱覽室","dep_content":"座數：2，特優級：0，優等級：2，普通級：0，加強級：0，無障礙設施","address":"臺北市大安區永康街60號2.3F","lng":"121.529646","lat":"25.029034","modifydate":"2013-03-29T17:41:38+08:00"},{"unit":"台北市政府環境保護局","title":"公廁坐落：羅斯福路派出所","dep_content":"座數：1，特優級：0，優等級：1，普通級：0，加強級：0，無障礙設施","address":"臺北市大安區羅斯福路四段115號","lng":"121.537614","lat":"25.011038","modifydate":"2013-03-29T11:08:06+08:00"},{"unit":"台北市政府環境保護局","title":"公廁坐落：三商巧福通化分公司","dep_content":"座數：1，特優級：0，優等級：1，普通級：0，加強級：0","address":"臺北市大安區信義路四段294巷9號","lng":"121.554386","lat":"25.03256","modifydate":"2013-04-01T16:31:18+08:00"},{"unit":"台北市政府環境保護局","title":"公廁坐落：丹堤咖啡永康店","dep_content":"座數：1，特優級：0，優等級：1，普通級：0，加強級：0","address":"臺北市大安區永康街22號","lng":"121.529431","lat":"25.031289","modifydate":"2014-04-14T16:32:28+08:00"},{"unit":"台北市政府環境保護局","title":"公廁坐落：丹堤咖啡和平大安店","dep_content":"座數：1，特優級：0，優等級：1，普通級：0，加強級：0","address":"臺北市大安區和平東路36-1號","lng":"121.537145","lat":"25.02566","modifydate":"2013-03-11T09:26:43+08:00"},{"unit":"台北市政府環境保護局","title":"公廁坐落：丹堤咖啡和平東店","dep_content":"座數：1，特優級：0，優等級：1，普通級：0，加強級：0","address":"臺北市大安區和平東路二段197號","lng":"121.542263","lat":"25.025447","modifydate":"2013-03-11T09:36:35+08:00"},{"unit":"台北市政府環境保護局","title":"公廁坐落：丹堤咖啡和平泰順店","dep_content":"座數：2，特優級：0，優等級：2，普通級：0，加強級：0","address":"臺北市大安區和平東路一段159-1號","lng":"121.531395","lat":"25.026788","modifydate":"2013-03-11T09:38:17+08:00"},{"unit":"台北市政府環境保護局","title":"公廁坐落：丹堤咖啡忠孝復興店","dep_content":"座數：1，特優級：0，優等級：0，普通級：1，加強級：0","address":"臺北市大安區忠孝東路三段228號","lng":"121.540675","lat":"25.041904","modifydate":"2012-09-26T17:05:12+08:00"},{"unit":"台北市政府環境保護局","title":"公廁坐落：丹堤咖啡信義通化分公司","dep_content":"座數：1，特優級：0，優等級：1，普通級：0，加強級：0","address":"臺北市大安區信義路四段265巷8號1樓","lng":"121.55419","lat":"25.033746","modifydate":"2013-04-01T16:30:39+08:00"},{"unit":"台北市政府環境保護局","title":"公廁坐落：丹堤咖啡捷運大安店","dep_content":"座數：1，特優級：0，優等級：1，普通級：0，加強級：0","address":"臺北市大安區信義路三段184號1樓","lng":"121.542585","lat":"25.033311","modifydate":"2013-04-01T16:34:29+08:00"},{"unit":"台北市政府環境保護局","title":"公廁坐落：丹堤咖啡捷運科技店","dep_content":"座數：1，特優級：0，優等級：1，普通級：0，加強級：0","address":"臺北市大安區復興南路二段277號","lng":"121.543701","lat":"25.025447","modifydate":"2014-04-18T10:26:32+08:00"},{"unit":"台北市政府環境保護局","title":"公廁坐落：丹堤咖啡敦化店","dep_content":"座數：1，特優級：0，優等級：0，普通級：1，加強級：0","address":"臺北市大安區忠孝東路四段120之13號","lng":"121.547327","lat":"25.041311","modifydate":"2013-03-11T09:33:34+08:00"},{"unit":"台北市政府環境保護局","title":"公廁坐落：丹堤咖啡新生南路分公司","dep_content":"座數：1，特優級：0，優等級：1，普通級：0，加強級：0","address":"臺北市大安區新生南路一段161-3號","lng":"121.533114","lat":"25.03449","modifydate":"2014-03-24T17:22:50+08:00"},{"unit":"台北市政府環境保護局","title":"公廁坐落：丹堤咖啡濟南分公司","dep_content":"座數：1，特優級：0，優等級：1，普通級：0，加強級：0","address":"臺北市大安區濟南路三段25號","lng":"121.534739","lat":"25.040283","modifydate":"2014-05-02T00:00:00+08:00"},{"unit":"台北市政府環境保護局","title":"公廁坐落：丹堤咖啡羅斯福路店","dep_content":"座數：1，特優級：0，優等級：1，普通級：0，加強級：0","address":"臺北市大安區羅斯福路二段111號1F","lng":"121.524475","lat":"25.024912","modifydate":"2014-03-27T16:10:12+08:00"},{"unit":"台北市政府環境保護局","title":"公廁坐落：丹堤咖啡羅斯福路師大店","dep_content":"座數：1，特優級：0，優等級：1，普通級：0，加強級：0","address":"臺北市大安區羅斯福路三段155號1F","lng":"121.5275","lat":"25.022131","modifydate":"2014-03-27T16:04:36+08:00"},{"unit":"台北市政府環境保護局","title":"公廁坐落：公務人員人力發展中心福華國際文教會館","dep_content":"座數：30，特優級：30，優等級：0，普通級：0，加強級：0，無障礙設施","address":"臺北市大安區新生南路三段30號","lng":"121.53417","lat":"25.023123","modifydate":"2014-03-11T11:16:19+08:00"},{"unit":"台北市政府環境保護局","title":"公廁坐落：王品台塑牛排館光復分公司","dep_content":"座數：1，特優級：1，優等級：0，普通級：0，加強級：0","address":"臺北市大安區光復南路612號1,2樓","lng":"121.557329","lat":"25.032399","modifydate":"2014-03-24T16:47:11+08:00"},{"unit":"台北市政府環境保護局","title":"公廁坐落：王品台塑牛排館和平東分公司","dep_content":"座數：1，特優級：1，優等級：0，普通級：0，加強級：0","address":"臺北市大安區和平東路一段177號之4","lng":"121.532371","lat":"25.026681","modifydate":"2014-02-26T11:07:05+08:00"},{"unit":"台北市政府環境保護局","title":"公廁坐落：台北香城大飯店","dep_content":"座數：2，特優級：2，優等級：0，普通級：0，加強級：0","address":"臺北市大安區信義路 4 段 295號","lng":"121.555254","lat":"25.033422","modifydate":"2013-04-01T17:17:01+08:00"},{"unit":"台北市政府環境保護局","title":"公廁坐落：台北商旅(大安館)","dep_content":"座數：2，特優級：2，優等級：0，普通級：0，加強級：0","address":"臺北市大安區大安路一段135號","lng":"121.546169","lat":"25.038742","modifydate":"2013-04-01T17:10:15+08:00"},{"unit":"台北市政府環境保護局","title":"公廁坐落：台北遠東國際大飯店","dep_content":"座數：10，特優級：10，優等級：0，普通級：0，加強級：0，無障礙設施","address":"臺北市大安區敦化南路二段201號","lng":"121.549282","lat":"25.026612","modifydate":"2013-10-01T16:58:46+08:00"},{"unit":"台北市政府環境保護局","title":"公廁坐落：台灣知多家建國分公司","dep_content":"座數：1，特優級：0，優等級：1，普通級：0，加強級：0","address":"臺北市大安區忠孝東路三段217巷1弄4號1樓","lng":"121.53951","lat":"25.042425","modifydate":"2013-04-01T16:35:10+08:00"},{"unit":"台北市政府環境保護局","title":"公廁坐落：必勝客光復店","dep_content":"座數：1，特優級：0，優等級：1，普通級：0，加強級：0，無障礙設施","address":"臺北市大安區忠孝東路四段343號2樓","lng":"121.557469","lat":"25.041579","modifydate":"2013-04-01T16:37:10+08:00"},{"unit":"台北市政府環境保護局","title":"公廁坐落：永福樓(忠孝店)　　　　","dep_content":"座數：2，特優級：2，優等級：0，普通級：0，加強級：0","address":"臺北市大安區忠孝東路四段59號2樓","lng":"121.545898","lat":"25.041791","modifydate":"2013-09-23T17:16:30+08:00"},{"unit":"台北市政府環境保護局","title":"公廁坐落：吉野家東門店","dep_content":"座數：1，特優級：0，優等級：1，普通級：0，加強級：0","address":"臺北市大安區金山南路二段9號","lng":"121.52735","lat":"25.03405","modifydate":"2014-04-14T16:32:45+08:00"},{"unit":"台北市政府環境保護局","title":"公廁坐落：西雅圖咖啡台大店","dep_content":"座數：1，特優級：0，優等級：1，普通級：0，加強級：0","address":"臺北市大安區新生南路三段88號","lng":"121.533337","lat":"25.018826","modifydate":"2014-03-27T16:03:59+08:00"},{"unit":"台北市政府環境保護局","title":"公廁坐落：西雅圖咖啡忠孝延吉店","dep_content":"座數：2，特優級：1，優等級：1，普通級：0，加強級：0","address":"臺北市大安區忠孝東路四段250之1號","lng":"121.554365","lat":"25.041438","modifydate":"2013-03-11T09:34:31+08:00"},{"unit":"台北市政府環境保護局","title":"公廁坐落：京兆尹(仁愛店)　　　　","dep_content":"座數：1，特優級：1，優等級：0，普通級：0，加強級：0","address":"臺北市大安區四維路18號1樓","lng":"121.548026","lat":"25.036607","modifydate":"2013-04-01T16:26:21+08:00"},{"unit":"台北市政府環境保護局","title":"公廁坐落：爭鮮古亭店","dep_content":"座數：1，特優級：1，優等級：0，普通級：0，加強級：0","address":"臺北市大安區羅斯福路二段73號1F","lng":"121.521256","lat":"25.029539","modifydate":"2014-03-27T16:00:22+08:00"},{"unit":"台北市政府環境保護局","title":"公廁坐落：爭鮮迴轉壽司科技店","dep_content":"座數：1，特優級：1，優等級：0，普通級：0，加強級：0","address":"臺北市大安區復興南路二段191號","lng":"121.543658","lat":"25.026934","modifydate":"2014-04-18T10:25:44+08:00"},{"unit":"台北市政府環境保護局","title":"公廁坐落：肯德基台北台大分公司","dep_content":"座數：1，特優級：0，優等級：1，普通級：0，加強級：0","address":"臺北市大安區新生南路三段96之號1樓,96之2號1樓","lng":"121.53336","lat":"25.017417","modifydate":"2013-04-01T18:11:35+08:00"},{"unit":"台北市政府環境保護局","title":"公廁坐落：茄子咖哩","dep_content":"座數：1，特優級：1，優等級：0，普通級：0，加強級：0","address":"臺北市大安區羅斯福路四段85號2F","lng":"121.536545","lat":"25.013051","modifydate":"2014-05-02T00:00:00+08:00"},{"unit":"台北市政府環境保護局","title":"公廁坐落：拿坡里和平店","dep_content":"座數：1，特優級：0，優等級：1，普通級：0，加強級：0","address":"臺北市大安區和平東路二段66號1F","lng":"121.538959","lat":"25.025447","modifydate":"2013-09-23T17:17:04+08:00"},{"unit":"台北市政府環境保護局","title":"公廁坐落：神旺大飯店","dep_content":"座數：8，特優級：8，優等級：0，普通級：0，加強級：0，無障礙設施","address":"臺北市大安區忠孝東路四段172號","lng":"121.550985","lat":"25.041298","modifydate":"2013-05-27T16:45:46+08:00"},{"unit":"台北市政府環境保護局","title":"公廁坐落：國聯大飯店","dep_content":"座數：4，特優級：4，優等級：0，普通級：0，加強級：0，無障礙設施","address":"臺北市大安區光復南路200號","lng":"121.557466","lat":"25.042095","modifydate":"2013-05-27T16:45:16+08:00"},{"unit":"台北市政府環境保護局","title":"公廁坐落：統一星巴克辛亥店","dep_content":"座數：1，特優級：0，優等級：1，普通級：0，加強級：0","address":"臺北市大安區辛亥路二段175號","lng":"121.541072","lat":"25.02183","modifydate":"2014-04-18T10:28:02+08:00"},{"unit":"台北市政府環境保護局","title":"公廁坐落：統一星巴克和平門市","dep_content":"座數：1，特優級：0，優等級：1，普通級：0，加強級：0","address":"臺北市大安區和平東路一段2號1樓","lng":"121.52293","lat":"25.027041","modifydate":"2013-03-11T09:22:59+08:00"},{"unit":"台北市政府環境保護局","title":"公廁坐落：統一星巴克建和門市","dep_content":"座數：1，特優級：0，優等級：1，普通級：0，加強級：0","address":"臺北市大安區和平東路二段42之1號1F","lng":"121.537167","lat":"25.025709","modifydate":"2013-03-11T09:25:42+08:00"},{"unit":"台北市政府環境保護局","title":"公廁坐落：統一星巴克雲和門市","dep_content":"座數：1，特優級：0，優等級：1，普通級：0，加強級：0","address":"臺北市大安區師大路74號","lng":"121.528196","lat":"25.023559","modifydate":"2013-03-11T09:27:08+08:00"},{"unit":"台北市政府環境保護局","title":"公廁坐落：統一星巴克興和門市","dep_content":"座數：1，特優級：0，優等級：1，普通級：0，加強級：0","address":"臺北市大安區復興南路二段275號","lng":"121.543647","lat":"25.025602","modifydate":"2014-04-18T10:26:58+08:00"},{"unit":"台北市政府環境保護局","title":"公廁坐落：統一星巴克興南門市","dep_content":"座數：1，特優級：0，優等級：1，普通級：0，加強級：0","address":"臺北市大安區復興南路一段323號1樓","lng":"121.543899","lat":"25.033679","modifydate":"2014-01-06T09:42:39+08:00"},{"unit":"台北市政府環境保護局","title":"公廁坐落：統一星巴克龍門門市","dep_content":"座數：1，特優級：0，優等級：1，普通級：0，加強級：0","address":"臺北市大安區忠孝東路四段134號1樓","lng":"121.54837","lat":"25.041327","modifydate":"2013-04-01T16:35:25+08:00"},{"unit":"台北市政府環境保護局","title":"公廁坐落：統一星巴克羅斯福路門市","dep_content":"座數：1，特優級：0，優等級：1，普通級：0，加強級：0","address":"臺北市大安區羅斯福路三段301號1F","lng":"121.531813","lat":"25.017893","modifydate":"2014-03-27T16:04:11+08:00"},{"unit":"台北市政府環境保護局","title":"公廁坐落：陶板屋光復南店","dep_content":"座數：1，特優級：0，優等級：1，普通級：0，加強級：0","address":"臺北市大安區光復南路286號B1","lng":"121.557391","lat":"25.039795","modifydate":"2013-03-11T09:35:16+08:00"},{"unit":"台北市政府環境保護局","title":"公廁坐落：麥當勞台北信義分公司","dep_content":"座數：1，特優級：0，優等級：1，普通級：0，加強級：0","address":"臺北市大安區信義路四段273號","lng":"121.554552","lat":"25.033374","modifydate":"2013-04-01T16:31:00+08:00"},{"unit":"台北市政府環境保護局","title":"公廁坐落：麥當勞台北復興2分公司","dep_content":"座數：1，特優級：0，優等級：1，普通級：0，加強級：0","address":"臺北市大安區復興南路二段273號1樓","lng":"121.543687","lat":"25.025483","modifydate":"2013-04-01T16:33:52+08:00"},{"unit":"台北市政府環境保護局","title":"公廁坐落：麥當勞台北敦南分公司","dep_content":"座數：1，特優級：0，優等級：0，普通級：1，加強級：0","address":"臺北市大安區四維路170巷2號1樓","lng":"121.547841","lat":"25.028039","modifydate":"2014-05-02T00:00:00+08:00"},{"unit":"台北市政府環境保護局","title":"公廁坐落：麥當勞光復店","dep_content":"座數：1，特優級：0，優等級：1，普通級：0，加強級：0","address":"臺北市大安區光復南路286號1F","lng":"121.557391","lat":"25.039795","modifydate":"2013-03-11T09:35:41+08:00"},{"unit":"台北市政府環境保護局","title":"公廁坐落：麥當勞忠孝6店","dep_content":"座數：1，特優級：0，優等級：1，普通級：0，加強級：0","address":"臺北市大安區忠孝東路四段226號","lng":"121.553726","lat":"25.041142","modifydate":"2013-04-01T16:36:05+08:00"},{"unit":"台北市政府環境保護局","title":"公廁坐落：麥當勞新生南路分公司","dep_content":"座數：1，特優級：0，優等級：1，普通級：0，加強級：0","address":"臺北市大安區新生南路三段88之1.2.3號","lng":"121.533552","lat":"25.018322","modifydate":"2013-04-01T18:11:52+08:00"},{"unit":"台北市政府環境保護局","title":"公廁坐落：麥當勞羅斯福中心","dep_content":"座數：1，特優級：0，優等級：1，普通級：0，加強級：0","address":"臺北市大安區羅斯福路二段45號1F","lng":"121.522393","lat":"25.027721","modifydate":"2013-03-11T09:37:33+08:00"},{"unit":"台北市政府環境保護局","title":"公廁坐落：麥當勞麟光店","dep_content":"座數：1，特優級：0，優等級：1，普通級：0，加強級：0","address":"臺北市大安區和平東路三段406巷8號1F","lng":"121.55812","lat":"25.018437","modifydate":"2014-03-27T16:00:02+08:00"},{"unit":"台北市政府環境保護局","title":"公廁坐落：喬合大飯店","dep_content":"座數：2，特優級：2，優等級：0，普通級：0，加強級：0","address":"臺北市大安區復興南路一段136號","lng":"121.543557","lat":"25.042737","modifydate":"2013-04-01T17:17:35+08:00"},{"unit":"台北市政府環境保護局","title":"公廁坐落：彭園湘菜館(羅斯福路店)","dep_content":"座數：1，特優級：0，優等級：1，普通級：0，加強級：0","address":"臺北市大安區羅斯福路二段27號","lng":"121.522074","lat":"25.028007","modifydate":"2013-04-01T16:26:35+08:00"},{"unit":"台北市政府環境保護局","title":"公廁坐落：漢堡王信義分公司","dep_content":"座數：1，特優級：0，優等級：1，普通級：0，加強級：0","address":"臺北市大安區信義路三段122號","lng":"121.538936","lat":"25.03325","modifydate":"2013-04-01T16:34:05+08:00"},{"unit":"台北市政府環境保護局","title":"公廁坐落：漢堡王師大店","dep_content":"座數：1，特優級：0，優等級：1，普通級：0，加強級：0","address":"臺北市大安區師大路92巷6號","lng":"121.528058","lat":"25.022686","modifydate":"2013-03-11T09:24:32+08:00"},{"unit":"台北市政府環境保護局","title":"公廁坐落：漢堡王敦南分公司","dep_content":"座數：1，特優級：0，優等級：1，普通級：0，加強級：0，無障礙設施","address":"臺北市大安區敦化南路二段164號1樓","lng":"121.548182","lat":"25.024255","modifydate":"2013-04-01T16:42:19+08:00"},{"unit":"台北市政府環境保護局","title":"公廁坐落：福華飯店","dep_content":"座數：12，特優級：12，優等級：0，普通級：0，加強級：0，無障礙設施","address":"臺北市大安區仁愛路三段160號","lng":"121.543347","lat":"25.037712","modifydate":"2013-05-27T16:44:26+08:00"},{"unit":"台北市政府環境保護局","title":"公廁坐落：豪麗大飯店","dep_content":"座數：1，特優級：1，優等級：0，普通級：0，加強級：0","address":"臺北市大安區大安路一段81,81-1號B2-7樓","lng":"121.546344","lat":"25.041152","modifydate":"2013-04-01T17:10:31+08:00"},{"unit":"台北市政府環境保護局","title":"公廁坐落：摩斯漢堡仁愛1店","dep_content":"座數：1，特優級：0，優等級：1，普通級：0，加強級：0","address":"臺北市大安區光復南路552號1F","lng":"121.557316","lat":"25.03475","modifydate":"2013-03-11T09:36:10+08:00"},{"unit":"台北市政府環境保護局","title":"公廁坐落：摩斯漢堡和平東路店","dep_content":"座數：1，特優級：0，優等級：1，普通級：0，加強級：0","address":"臺北市大安區和平東路一段278號","lng":"121.534109","lat":"25.026176","modifydate":"2013-03-11T09:25:17+08:00"},{"unit":"台北市政府環境保護局","title":"公廁坐落：摩斯漢堡金山店","dep_content":"座數：1，特優級：0，優等級：0，普通級：1，加強級：0","address":"臺北市大安區金山南路二段121號","lng":"121.526792","lat":"25.030784","modifydate":"2014-04-14T16:33:07+08:00"},{"unit":"台北市政府環境保護局","title":"公廁坐落：摩斯漢堡信義通化店","dep_content":"座數：1，特優級：0，優等級：1，普通級：0，加強級：0","address":"臺北市大安區信義路四段304號1樓","lng":"121.55664","lat":"25.041768","modifydate":"2014-03-27T16:35:58+08:00"},{"unit":"台北市政府環境保護局","title":"公廁坐落：摩斯漢堡復興南路分公司","dep_content":"座數：1，特優級：0，優等級：1，普通級：0，加強級：0","address":"臺北市大安區復興南路二段151巷47號1樓","lng":"121.545689","lat":"25.028459","modifydate":"2014-05-02T00:00:00+08:00"},{"unit":"台北市政府環境保護局","title":"公廁坐落：摩斯漢堡新生南路店","dep_content":"座數：1，特優級：0，優等級：1，普通級：0，加強級：0","address":"臺北市大安區新生南路一段161之1,9號1樓","lng":"121.533077","lat":"25.03449","modifydate":"2014-03-24T17:16:37+08:00"},{"unit":"台北市政府環境保護局","title":"公廁坐落：摩斯漢堡羅斯福路店","dep_content":"座數：1，特優級：0，優等級：1，普通級：0，加強級：0","address":"臺北市大安區羅斯福路三段233號1F","lng":"121.529796","lat":"25.019895","modifydate":"2014-03-27T16:04:25+08:00"},{"unit":"台北市政府環境保護局","title":"公廁坐落：馥敦大飯店","dep_content":"座數：2，特優級：2，優等級：0，普通級：0，加強級：0","address":"臺北市大安區復興南路二段41號","lng":"121.54387","lat":"25.031456","modifydate":"2013-04-01T17:17:52+08:00"},{"unit":"台北市政府環境保護局","title":"公廁坐落：龐德羅莎台大店","dep_content":"座數：1，特優級：0，優等級：1，普通級：0，加強級：0","address":"臺北市大安區羅斯福路四段85號2F","lng":"121.536545","lat":"25.013051","modifydate":"2014-05-02T00:00:00+08:00"},{"unit":"台北市政府環境保護局","title":"公廁坐落：南山戲院(Ａ、Ｂ、Ｃ、Ｄ廳)","dep_content":"座數：4，特優級：0，優等級：4，普通級：0，加強級：0","address":"臺北市大安區通化街24巷1號","lng":"121.55406","lat":"25.031586","modifydate":"2014-03-13T15:40:10+08:00"},{"unit":"台北市政府環境保護局","title":"公廁坐落：梅花數位影院　　　","dep_content":"座數：5，特優級：4，優等級：1，普通級：0，加強級：0，無障礙設施","address":"臺北市大安區和平東路三段63號2樓","lng":"121.549258","lat":"25.025184","modifydate":"2014-03-21T16:06:36+08:00"},{"unit":"台北市政府環境保護局","title":"公廁坐落：大安15號","dep_content":"座數：1，特優級：0，優等級：1，普通級：0，加強級：0，無障礙設施","address":"臺北市大安區辛亥路三段284巷殯儀館外（台灣三山善社後面）","lng":"121.551712","lat":"25.014276","modifydate":"2013-03-05T17:35:18+08:00"},{"unit":"台北市政府環境保護局","title":"公廁坐落：大安16號","dep_content":"座數：1，特優級：0，優等級：1，普通級：0，加強級：0","address":"臺北市大安區臥龍街64巷8號邊","lng":"121.54752","lat":"25.021407","modifydate":"2013-03-05T18:09:17+08:00"},{"unit":"台北市政府環境保護局","title":"公廁坐落：大安1號","dep_content":"座數：1，特優級：0，優等級：1，普通級：0，加強級：0，無障礙設施","address":"臺北市大安區四維路6巷2號對面","lng":"121.548033","lat":"25.03706","modifydate":"2013-03-05T17:30:18+08:00"},{"unit":"台北市政府環境保護局","title":"公廁坐落：大安23號","dep_content":"座數：1，特優級：1，優等級：0，普通級：0，加強級：0","address":"臺北市大安區基隆路三段155巷182弄坡上","lng":"121.548401","lat":"25.01355","modifydate":"2013-03-05T17:39:23+08:00"},{"unit":"台北市政府環境保護局","title":"公廁坐落：大安24號","dep_content":"座數：1，特優級：0，優等級：1，普通級：0，加強級：0","address":"臺北市大安區基隆路三段155巷128號邊","lng":"121.547823","lat":"25.012458","modifydate":"2013-03-05T17:41:38+08:00"},{"unit":"台北市政府環境保護局","title":"公廁坐落：大安2號","dep_content":"座數：1，特優級：0，優等級：1，普通級：0，加強級：0，無障礙設施","address":"臺北市大安區瑞安街208巷47弄39號慈湄宮旁","lng":"121.541707","lat":"25.030005","modifydate":"2013-03-05T17:44:29+08:00"},{"unit":"台北市政府環境保護局","title":"公廁坐落：大安6號","dep_content":"座數：1，特優級：0，優等級：1，普通級：0，加強級：0，無障礙設施","address":"臺北市大安區臨江街102之5號旁巷內","lng":"121.555036","lat":"25.029931","modifydate":"2013-03-05T17:46:00+08:00"},{"unit":"台北市政府環境保護局","title":"公廁坐落：大安7號","dep_content":"座數：1，特優級：0，優等級：1，普通級：0，加強級：0，無障礙設施","address":"臺北市大安區臨江街106之2號旁巷內","lng":"121.554785","lat":"25.029983","modifydate":"2013-03-05T17:47:09+08:00"},{"unit":"台北市政府環境保護局","title":"公廁坐落：大安8號","dep_content":"座數：1，特優級：0，優等級：1，普通級：0，加強級：0，無障礙設施","address":"臺北市大安區臨江街112巷旁巷內","lng":"121.555257","lat":"25.029933","modifydate":"2013-03-05T17:48:11+08:00"},{"unit":"台北市政府環境保護局","title":"公廁坐落：大安花市3號","dep_content":"座數：1，特優級：0，優等級：1，普通級：0，加強級：0，無障礙設施","address":"臺北市大安區仁愛路與建國南路口高架橋下","lng":"121.53806","lat":"25.037046","modifydate":"2013-03-05T17:52:49+08:00"},{"unit":"台北市政府環境保護局","title":"公廁坐落：中山醫院　　　　　","dep_content":"座數：7，特優級：0，優等級：7，普通級：0，加強級：0，無障礙設施","address":"臺北市大安區仁愛路四段112巷11號","lng":"121.549967","lat":"25.036393","modifydate":"2013-03-05T17:38:41+08:00"},{"unit":"台北市政府環境保護局","title":"公廁坐落：宏恩醫院","dep_content":"座數：3，特優級：0，優等級：3，普通級：0，加強級：0，無障礙設施","address":"臺北市大安區仁愛路四段71巷1號","lng":"121.547122","lat":"25.03975","modifydate":"2013-10-02T17:25:40+08:00"},{"unit":"台北市政府環境保護局","title":"公廁坐落：秀傳醫院","dep_content":"座數：1，特優級：0，優等級：0，普通級：1，加強級：0","address":"臺北市大安區光復南路116巷1、3、5號","lng":"121.556833","lat":"25.043095","modifydate":"2014-04-28T11:43:30+08:00"},{"unit":"台北市政府環境保護局","title":"公廁坐落：財團法人中心診所醫院　　　　　","dep_content":"座數：4，特優級：0，優等級：4，普通級：0，加強級：0，無障礙設施","address":"臺北市大安區忠孝東路四段77號","lng":"121.547439","lat":"25.04177","modifydate":"2013-03-29T17:51:26+08:00"},{"unit":"台北市政府環境保護局","title":"公廁坐落：財團法人國泰綜合醫院　　　　","dep_content":"座數：10，特優級：5，優等級：5，普通級：0，加強級：0，無障礙設施","address":"臺北市大安區仁愛路四段280號","lng":"121.553682","lat":"25.036827","modifydate":"2013-03-05T18:21:06+08:00"},{"unit":"台北市政府環境保護局","title":"公廁坐落：臺北市立聯合醫院仁愛院區　　　　　","dep_content":"座數：17，特優級：2，優等級：14，普通級：1，加強級：0，無障礙設施","address":"臺北市大安區仁愛路四段10號","lng":"121.545224","lat":"25.037512","modifydate":"2013-03-29T17:49:39+08:00"},{"unit":"台北市政府環境保護局","title":"公廁坐落：一江公園","dep_content":"座數：1，特優級：0，優等級：1，普通級：0，加強級：0，無障礙設施","address":"臺北市中山區一江街及松江路146號邊","lng":"121.531197","lat":"25.053518","modifydate":"2013-03-25T17:39:49+08:00"},{"unit":"台北市政府環境保護局","title":"公廁坐落：力行公園","dep_content":"座數：1，特優級：0，優等級：1，普通級：0，加強級：0，無障礙設施","address":"臺北市中山區通北街118巷口","lng":"121.536759","lat":"25.085142","modifydate":"2013-03-25T17:54:30+08:00"},{"unit":"台北市政府環境保護局","title":"公廁坐落：中山美術公園","dep_content":"座數：2，特優級：2，優等級：0，普通級：0，加強級：0，無障礙設施","address":"臺北市中山區台北市圓山里中山北路三段181號","lng":"121.524131","lat":"25.072558","modifydate":"2013-03-25T17:59:13+08:00"},{"unit":"台北市政府環境保護局","title":"公廁坐落：中山康樂公園(公園中山15號)","dep_content":"座數：1，特優級：0，優等級：1，普通級：0，加強級：0，無障礙設施","address":"臺北市中山區林森北路與南京東路一段交叉口","lng":"121.524911","lat":"25.053302","modifydate":"2013-03-25T17:59:31+08:00"},{"unit":"台北市政府環境保護局","title":"公廁坐落：四平公園","dep_content":"座數：1，特優級：0，優等級：1，普通級：0，加強級：0","address":"臺北市中山區伊通街97之1","lng":"121.534612","lat":"25.053129","modifydate":"2013-03-25T17:56:47+08:00"},{"unit":"台北市政府環境保護局","title":"公廁坐落：民族公園","dep_content":"座數：1，特優級：0，優等級：1，普通級：0，加強級：0，無障礙設施","address":"臺北市中山區民族東路新生北路口","lng":"121.527608","lat":"25.068483","modifydate":"2013-03-25T17:41:38+08:00"},{"unit":"台北市政府環境保護局","title":"公廁坐落：永直公園","dep_content":"座數：1，特優級：0，優等級：1，普通級：0，加強級：0，無障礙設施","address":"臺北市中山區北安路608巷4弄底","lng":"121.549301","lat":"25.08179","modifydate":"2012-09-14T10:22:33+08:00"},{"unit":"台北市政府環境保護局","title":"公廁坐落：朱崙公園","dep_content":"座數：1，特優級：0，優等級：1，普通級：0，加強級：0，無障礙設施","address":"臺北市中山區龍江路45巷","lng":"121.541321","lat":"25.049167","modifydate":"2013-03-25T17:39:24+08:00"},{"unit":"台北市政府環境保護局","title":"公廁坐落：新生公園","dep_content":"座數：3，特優級：0，優等級：3，普通級：0，加強級：0，無障礙設施","address":"臺北市中山區新生北路三段105號建國高架橋旁","lng":"121.530579","lat":"25.069429","modifydate":"2013-03-05T18:25:23+08:00"},{"unit":"台北市政府環境保護局","title":"公廁坐落：榮星公園","dep_content":"座數：3，特優級：0，優等級：3，普通級：0，加強級：0，無障礙設施","address":"臺北市中山區民權東路三段1號","lng":"121.538864","lat":"25.063371","modifydate":"2013-03-25T17:37:29+08:00"},{"unit":"台北市政府環境保護局","title":"公廁坐落：劍潭公園","dep_content":"座數：1，特優級：0，優等級：1，普通級：0，加強級：0","address":"臺北市中山區中山北路四段劍潭公園","lng":"121.524493","lat":"25.080501","modifydate":"2014-05-02T00:00:00+08:00"},{"unit":"台北市政府環境保護局","title":"公廁坐落：中油大直站","dep_content":"座數：1，特優級：1，優等級：0，普通級：0，加強級：0，無障礙設施","address":"臺北市中山區明水路661號","lng":"121.550653","lat":"25.084249","modifydate":"2012-09-26T16:20:34+08:00"},{"unit":"台北市政府環境保護局","title":"公廁坐落：中油中崙站","dep_content":"座數：1，特優級：0，優等級：1，普通級：0，加強級：0","address":"臺北市中山區八德路二段214號","lng":"121.539601","lat":"25.046359","modifydate":"2013-03-25T16:07:38+08:00"},{"unit":"台北市政府環境保護局","title":"公廁坐落：中油吉林路站","dep_content":"座數：1，特優級：0，優等級：1，普通級：0，加強級：0","address":"臺北市中山區吉林路31號","lng":"121.5302","lat":"25.050893","modifydate":"2014-03-17T18:12:10+08:00"},{"unit":"台北市政府環境保護局","title":"公廁坐落：中油建國北路站","dep_content":"座數：1，特優級：0，優等級：1，普通級：0，加強級：0，無障礙設施","address":"臺北市中山區建國北路三段91之1號","lng":"121.536698","lat":"25.065677","modifydate":"2013-03-25T16:20:07+08:00"},{"unit":"台北市政府環境保護局","title":"公廁坐落：中油新生北路站","dep_content":"座數：1，特優級：0，優等級：1，普通級：0，加強級：0，無障礙設施","address":"臺北市中山區新生北路二段71號","lng":"121.52805","lat":"25.056552","modifydate":"2013-03-25T16:14:07+08:00"},{"unit":"台北市政府環境保護局","title":"公廁坐落：西歐大直橋加油站","dep_content":"座數：1，特優級：0，優等級：1，普通級：0，加強級：0","address":"臺北市中山區濱江街333號","lng":"121.547778","lat":"25.072675","modifydate":"2013-04-26T15:37:49+08:00"},{"unit":"台北市政府環境保護局","title":"公廁坐落：濱江加油站","dep_content":"座數：1，特優級：0，優等級：1，普通級：0，加強級：0","address":"臺北市中山區濱江街195號","lng":"121.539409","lat":"25.072918","modifydate":"2013-03-25T17:23:21+08:00"},{"unit":"台北市政府環境保護局","title":"公廁坐落：公有八德市場","dep_content":"座數：1，特優級：0，優等級：1，普通級：0，加強級：0","address":"臺北市中山區八德路二段108之1號","lng":"121.53632","lat":"25.045877","modifydate":"2014-01-15T17:50:10+08:00"},{"unit":"台北市政府環境保護局","title":"公廁坐落：公有大直市場","dep_content":"座數：1，特優級：0，優等級：1，普通級：0，加強級：0","address":"臺北市中山區北安路476號","lng":"121.545138","lat":"25.079657","modifydate":"2014-01-15T17:52:18+08:00"},{"unit":"台北市政府環境保護局","title":"公廁坐落：公有中山市場","dep_content":"座數：3，特優級：0，優等級：1，普通級：2，加強級：0","address":"臺北市中山區長安西路3號","lng":"121.521077","lat":"25.050213","modifydate":"2014-01-15T17:52:11+08:00"},{"unit":"台北市政府環境保護局","title":"公廁坐落：公有松江市場","dep_content":"座數：1，特優級：0，優等級：1，普通級：0，加強級：0，無障礙設施","address":"臺北市中山區錦州街222號","lng":"121.53215","lat":"25.060217","modifydate":"2014-01-15T17:50:17+08:00"},{"unit":"台北市政府環境保護局","title":"公廁坐落：公有長春市場","dep_content":"座數：2，特優級：0，優等級：2，普通級：0，加強級：0","address":"臺北市中山區長春路299號","lng":"121.542386","lat":"25.054769","modifydate":"2014-01-15T17:50:04+08:00"},{"unit":"台北市政府環境保護局","title":"公廁坐落：臺北民族漁市","dep_content":"座數：3，特優級：0，優等級：3，普通級：0，加強級：0，無障礙設施","address":"臺北市中山區民族東路410巷2弄20號","lng":"121.536732","lat":"25.066674","modifydate":"2014-01-15T17:57:07+08:00"},{"unit":"台北市政府環境保護局","title":"公廁坐落：臺北第二果菜批發市場(濱江)","dep_content":"座數：10，特優級：0，優等級：10，普通級：0，加強級：0，無障礙設施","address":"臺北市中山區民族東路336號","lng":"121.537226","lat":"25.068013","modifydate":"2013-04-01T18:49:48+08:00"},{"unit":"台北市政府環境保護局","title":"公廁坐落：大直計程車服務站","dep_content":"座數：2，特優級：0，優等級：2，普通級：0，加強級：0，無障礙設施","address":"臺北市中山區北安路676號","lng":"121.549935","lat":"25.084421","modifydate":"2013-09-13T10:45:01+08:00"},{"unit":"台北市政府環境保護局","title":"公廁坐落：中山計程車服務站","dep_content":"座數：1，特優級：0，優等級：1，普通級：0，加強級：0，無障礙設施","address":"臺北市中山區新生北路三段市立美術館後","lng":"121.525693","lat":"25.071735","modifydate":"2013-09-13T10:45:20+08:00"},{"unit":"台北市政府環境保護局","title":"公廁坐落：市民大道地下停車場中林段","dep_content":"座數：2，特優級：0，優等級：2，普通級：0，加強級：0，無障礙設施","address":"臺北市中山區中山北路-林森北路間地下","lng":"121.522056","lat":"25.047866","modifydate":"2013-03-04T17:17:02+08:00"},